country,osm_id,town,lat,lon
Algeria,89369215,Tamanrasset,22.7854543,5.5324465
Algeria,89980948,In Salah,27.1950331,2.4826132
Algeria,252600742,Boumerdès,36.758882,3.470596
Algeria,253167052,Thenia,36.724986,3.556935
Algeria,253167208,Zemmouri,36.7864064,3.6012209
Algeria,253291208,Lakhdaria,36.5639442,3.596907
Algeria,253292622,Draâ Ben Khedda,36.7333317,3.9587692
Algeria,253292625,Dellys,36.915798,3.913104
Algeria,258799889,El Menia,30.5836683,2.8830889
Algeria,262393185,In Guezzam,19.5667239,5.7717
Algeria,262963952,Benaceur,33.1105213,6.4421107
Algeria,262964161,M'Naguer,33.1267306,6.3527057
Algeria,262969007,Ben Srour,35.0404431,4.5633795
Algeria,264023963,Chahbounia,35.5415407,2.6037738
Algeria,264507153,Ouled Djellal,34.4254103,5.0644342
Algeria,264575953,Timimoun,29.2605117,0.2285923
Algeria,273094269,Bordj El Kiffan,36.747273,3.1908953
Algeria,287172660,Bir Mourad Raïs,36.7394084,3.050026
Algeria,287485747,El Biar,36.7689983,3.0299471
Algeria,288037571,Bab Ezzouar,36.722026,3.1856676
Algeria,288090062,Beni Messous,36.7796161,2.9753936
Algeria,288370371,Chéraga,36.7668415,2.9602382
Algeria,288370377,Dely Brahim,36.7519699,2.9816495
Algeria,288380563,Draria,36.7139578,2.9978257
Algeria,288383847,Saoula,36.7024459,3.0265974
Algeria,288385642,Birkhadem,36.7154602,3.0490708
Algeria,288390075,Ain Naadja,36.7024722,3.0801951
Algeria,288399489,El Harrach,36.7212307,3.1374104
Algeria,288402701,Bachdjarrah,36.7200591,3.1126365
Algeria,288419592,Berrouaghia,36.1352805,2.9172738
Algeria,288420150,Ksar El Boukhari,35.8863227,2.750158
Algeria,288656379,Bologhine,36.8046778,3.0426168
Algeria,288825235,Tindouf,27.6718402,-8.1397297
Algeria,290029840,Bab El Oued,36.7906652,3.0497355
Algeria,290212788,Bordj Menaïel,36.7432364,3.7175665
Algeria,290255428,Naciria,36.7471933,3.836858
Algeria,290255429,Tadmaït,36.7446573,3.9012256
Algeria,291044188,El Khroub,36.2603681,6.6970014
Algeria,299837073,Baraki,36.6679961,3.0961318
Algeria,313438448,Kolea,36.6373721,2.7690992
Algeria,313438452,Bou Ismaïl,36.6429011,2.6956357
Algeria,313983005,Douera,36.6694089,2.9421031
Algeria,313983060,Khraïcia,36.6771868,2.98177
Algeria,313983223,Souidania,36.7079748,2.9125592
Algeria,314767090,Staoueli,36.75334,2.8881755
Algeria,316367211,Larbâa,36.5627858,3.1565758
Algeria,316373452,Larbatache,36.6365586,3.3713937
Algeria,316373549,Meftah,36.6198845,3.2222298
Algeria,316374182,Bougara,36.5448652,3.0869346
Algeria,316374305,Bouinan,36.5322102,2.9918496
Algeria,316374727,Soumâa,36.5184909,2.9084853
Algeria,316376509,Boufarik,36.5755523,2.9128963
Algeria,316376810,Birtouta,36.6449935,2.9984656
Algeria,316377925,Chebli,36.5780957,3.0076619
Algeria,316378657,Sidi Moussa,36.6062538,3.0881462
Algeria,316914591,Hussein Dey,36.7412362,3.1013287
Algeria,317105898,Corso,36.7547423,3.4433833
Algeria,317128784,Rouiba,36.7364706,3.2824014
Algeria,317128785,Reghaïa,36.7387813,3.3421179
Algeria,317134979,Boudouaou,36.727203,3.408382
Algeria,317142674,Ouled Haddadj,36.7130535,3.3384334
Algeria,317143897,Ouled Moussa,36.6857409,3.3642924
Algeria,317155206,Hammedi,36.681287,3.258936
Algeria,317353592,H'raoua,36.7727459,3.3085008
Algeria,317353655,Aïn Taya,36.7912902,3.2926194
Algeria,317353676,Bordj El Bahri,36.7907949,3.2501775
Algeria,321404042,El Achour,36.7341624,2.9905236
Algeria,330434454,Aïn Benian,36.8038042,2.9216013
Algeria,330434836,Raïs Hamidou,36.8173356,3.011517
Algeria,330435062,Hammamet,36.8128133,2.9738147
Algeria,331970316,Sidi Aïch,36.6127456,4.6900471
Algeria,333924930,Oued Smar,36.7044199,3.1681561
Algeria,333954911,Aïn Turk,35.7400353,-0.7539496
Algeria,393866143,El Matmar,35.7309261,0.4611475
Algeria,393866177,Yellel,35.7217352,0.3571077
Algeria,393867912,El Ghomri,35.6883106,0.2069806
Algeria,393872536,Mohammadia,35.5892003,0.0670398
Algeria,393990510,Boukadir,36.0650746,1.1278681
Algeria,393991274,Oued Sly,36.101565,1.1995738
Algeria,394180413,Chiffa,36.4622287,2.7409097
Algeria,394180743,Mouzaïa,36.4674416,2.6879953
Algeria,394180829,El Affroun,36.46975,2.6267421
Algeria,394249205,Khemis Miliana,36.2601716,2.2196633
Algeria,394266907,Aïn Defla,36.2656797,1.9701666
Algeria,394267731,Rouina,36.2448216,1.8055909
Algeria,394303114,Beni Tamou,36.5374705,2.8206529
Algeria,394733994,Bouira,36.3739012,3.9007007
Algeria,394734839,Bechloul,36.312195,4.0749566
Algeria,394734848,El Asnam,36.3212698,4.0130314
Algeria,394765107,Aïn Smara,36.266467,6.4969576
Algeria,416631795,Aïn Mlila,36.0375444,6.570986
Algeria,416687911,Azzaba,36.7409382,7.1083637
Algeria,416689292,El Harrouch,36.6514052,6.8360907
Algeria,416689744,Didouche Mourad,36.4446761,6.6330811
Algeria,416690119,Hamma Bouziane,36.4248981,6.6008903
Algeria,416765559,Oued Athmania,36.2495545,6.2870618
Algeria,416767390,Tadjenanet,36.1192994,5.9857948
Algeria,417598846,El Achir,36.0632388,4.6294961
Algeria,417620827,M'Chedallah,36.3646864,4.2711718
Algeria,417620891,El Adjiba,36.329154,4.1586277
Algeria,418104033,Tazmalt,36.3879335,4.3993293
Algeria,418104397,Akbou,36.4599446,4.529545
Algeria,418104506,Ighzer Amokrane,36.5407665,4.6120008
Algeria,418104782,El Kseur,36.6794351,4.8523757
Algeria,418165557,Tipaza,36.5918179,2.4482509
Algeria,418493291,Ben Aknoun,36.759271,3.0197169
Algeria,424065923,Beni Saf,35.3025458,-1.382036
Algeria,424087266,Hennaya,34.9506637,-1.3667337
Algeria,424090451,Sebdou,34.6403022,-1.3220383
Algeria,424095459,El Aricha,34.2240422,-1.2576653
Algeria,424611947,Aïn El Hadjar,34.7609816,0.1443664
Algeria,424638440,Béni Ounif,32.0501891,-1.2486808
Algeria,424657355,Aïn Sefra,32.7568151,-0.577859
Algeria,424703021,Nâama,33.2647342,-0.3110393
Algeria,424710466,El Biod,33.7636135,-0.1306774
Algeria,424711276,Bougtob,34.0405202,0.087067
Algeria,424739069,Oued Taria,35.1178344,0.0886967
Algeria,424740106,Ghriss,35.2481745,0.1604511
Algeria,424744420,Tizi,35.3161396,0.0739093
Algeria,424749543,Sig,35.5305119,-0.1906822
Algeria,424944424,Stidia,35.8329584,-0.0035725
Algeria,424950598,Ben Abdelmalek Ramdane,36.1052802,0.2734995
Algeria,424951766,Hadjadj,36.0953239,0.3256437
Algeria,424952796,Sidi Lakhdar,36.1643449,0.4406587
Algeria,424957233,El Marsa,36.4038418,0.9161633
Algeria,424959220,Ténès,36.5081219,1.3078005
Algeria,424961763,Beni Haoua,36.5299218,1.5725471
Algeria,424962636,Damous,36.5487451,1.705542
Algeria,424964849,Gouraya,36.5718933,1.9059603
Algeria,424966351,Sidi Ghiles,36.5833351,2.1224482
Algeria,424966632,Cherchell,36.6075021,2.1901982
Algeria,424970741,Sidi Rached,36.5625526,2.5324546
Algeria,425026894,Cap Djinet,36.8779905,3.720138
Algeria,425029266,Tigzirt,36.8926614,4.126179
Algeria,425061188,Tichy,36.6688877,5.1574296
Algeria,425062007,Aokas,36.6369631,5.2440784
Algeria,425062579,Souk El Tenine,36.6255263,5.3360454
Algeria,425064156,Melbou,36.641429,5.3620311
Algeria,425066820,Ziama Mansouriah,36.6721506,5.4808312
Algeria,425275146,El Aouana,36.7728403,5.6099679
Algeria,425277665,Kaous,36.7701723,5.8136168
Algeria,425278274,Taher,36.7712912,5.897589
Algeria,425284449,Sidi Abdelaziz,36.853261,6.051473
Algeria,425286810,El Milia,36.7514104,6.2744614
Algeria,425297963,El Kala,36.8953504,8.4420993
Algeria,425299676,Aïn El Assel,36.7866125,8.3830296
Algeria,425300501,El Tarf,36.766333,8.314383
Algeria,425302343,Bouteldja,36.7855823,8.1990268
Algeria,425303909,Ben M'hidi,36.7704579,7.9053142
Algeria,425307289,Berrahal,36.8353153,7.4597229
Algeria,425309456,Aïn Charchar,36.7331778,7.2219657
Algeria,427910708,El Kantara,35.2231152,5.7092844
Algeria,428235508,Ramdane Djamel,36.755281,6.8931785
Algeria,428237405,Gdyel,35.782484,-0.4241977
Algeria,428239843,Hassi Mefsoukh,35.8006933,-0.3765323
Algeria,429501667,Reggane,26.7207267,0.1751507
Algeria,429502149,Bordj Badji Mokhtar,21.3302568,0.9540403
Algeria,429533109,In Ghar,27.1018319,1.9065264
Algeria,429541203,Aoulef,26.9722077,1.0786817
Algeria,429683749,Bethioua,35.805837,-0.267936
Algeria,429765441,Abadla,31.0274839,-2.7104418
Algeria,439856784,Ouled Derradj,35.6927204,4.7759349
Algeria,439857152,Berhoum,35.654979,5.0344441
Algeria,439857505,Magra,35.6163647,5.1014147
Algeria,439888319,Sfisef,35.2355377,-0.2426616
Algeria,439898380,Hassi Zehana,35.0256882,-0.8889946
Algeria,439900723,Ben Badis,34.9525879,-0.9165478
Algeria,439902538,Ouled Mimoun,34.904794,-1.0281674
Algeria,439911463,Sabra,34.8260248,-1.530335
Algeria,439916608,Sidi Aïssa,35.8838359,3.7803723
Algeria,439917359,Sour El Ghozlane,36.147376,3.691797
Algeria,439918614,Bir Ghbalou,36.2628812,3.5850113
Algeria,439919524,Tablat,36.4127653,3.3097893
Algeria,439921054,Aïn El Hadjel,35.6746597,3.8821519
Algeria,442687443,Meskiana,35.6291407,7.6694143
Algeria,442688831,Oum El Bouaghi,35.8687758,7.1150645
Algeria,442689045,Aïn Fakroun,35.9735846,6.8759954
Algeria,442689414,Sigus,36.1239401,6.7854947
Algeria,442761948,Tizi Rached,36.6789662,4.2086164
Algeria,442761953,Mekla,36.6876391,4.2681185
Algeria,442762008,Freha,36.757399,4.3194454
Algeria,442762044,Azazga,36.744738,4.3716399
Algeria,442762529,Adekkar,36.6929171,4.6734299
Algeria,442779551,Telagh,34.7797863,-0.5715147
Algeria,442779799,Ras El Ma,34.501464,-0.8172962
Algeria,442789879,Aïn El Hammam,36.5704326,4.3111366
Algeria,442792269,Larbâa n Ath Irathen,36.6374918,4.2028466
Algeria,442967280,Maoussa,35.3782884,0.2457041
Algeria,442968889,Tighennif,35.4143144,0.3292328
Algeria,442973081,Takhemaret,35.1072931,0.6833572
Algeria,442973218,Aïn El Hadid,35.0554796,0.8856345
Algeria,442973658,Frenda,35.0655965,1.0566092
Algeria,442975387,Dahmouni,35.4167989,1.4746045
Algeria,442976540,Tissemsilt,35.604813,1.810476
Algeria,442977388,Theniet El Had,35.8739691,2.0240828
Algeria,443008187,Hassi Khelifa,33.5630338,6.9953023
Algeria,443008345,Debila,33.5059503,6.9376019
Algeria,443009273,Hassani Abdelkrim,33.4771663,6.8948804
Algeria,443011119,Taïbet,33.0829494,6.399809
Algeria,443017215,Morsott,35.6717654,8.0102728
Algeria,443019113,M'Daourouch,36.0773091,7.8212383
Algeria,443023131,Mechroha,36.3565124,7.8387478
Algeria,443023870,Boucheghouf,36.4704821,7.7290561
Algeria,443024583,Drean,36.6851201,7.7470888
Algeria,443024715,Chebaïta Mokhtar,36.755843,7.7407291
Algeria,443025997,El Hadjar,36.8039598,7.7371328
Algeria,443026615,El Bouni,36.8548275,7.7413708
Algeria,443036864,Hassi Mameche,35.8607135,0.0734609
Algeria,443036963,Aïn Nouissy,35.8037574,0.0444501
Algeria,443037222,Fornaka,35.7519675,-0.0167043
Algeria,443042310,Aïn Soltane,36.2483226,2.2973227
Algeria,443042469,Djendel,36.2192263,2.4153796
Algeria,443042584,Ouamri,36.2321878,2.5656189
Algeria,443043847,Sidi Naâmane,36.2145175,3.1265727
Algeria,443044186,Beni Slimane,36.230723,3.3104153
Algeria,443044984,Aïn Bessam,36.2929113,3.6735417
Algeria,443048075,Sidi Akacha,36.4649578,1.3052519
Algeria,443048266,Abou El Hassen,36.4164372,1.1961148
Algeria,443049657,Ouled Fares,36.2322168,1.2381718
Algeria,443049850,Chettia,36.1975937,1.258941
Algeria,443123684,Aïn Abid,36.2316433,6.941081
Algeria,443124959,Oued Zenati,36.3130761,7.164528
Algeria,443125684,Belkheir,36.4634182,7.4763788
Algeria,443126471,Boumahra Ahmed,36.4604068,7.5143095
Algeria,443132308,Héliopolis,36.5057901,7.4423038
Algeria,443158763,Baghlia,36.816884,3.8578153
Algeria,443160243,Darguina,36.5645871,5.3059309
Algeria,443160283,Kherrata,36.4940588,5.2771449
Algeria,443160401,Amoucha,36.3870211,5.4134576
Algeria,443171188,Sidi Merouane,36.5189042,6.2603141
Algeria,443171239,Grarem Gouga,36.5152648,6.3261322
Algeria,443176816,Salah Bey,35.8520786,5.2904883
Algeria,443176881,Aïn Oulmane,35.9231689,5.2959232
Algeria,443181184,Ouadhia,36.555223,4.0867217
Algeria,443181221,Mechtras,36.5438917,4.011092
Algeria,443181292,Draa El Mizan,36.5350648,3.8380358
Algeria,443181299,Chetma,34.8447307,5.7939424
Algeria,443181342,Arris,35.258514,6.3449818
Algeria,443181377,Tazoult,35.4860091,6.2536097
Algeria,443188820,Ouled Rechache,35.2972988,7.3548369
Algeria,443188921,El Mahmal,35.3751785,7.2115567
Algeria,443189243,Ksar Sbahi,36.0815345,7.2581916
Algeria,443189599,Aïn Kechra,36.746257,6.4333418
Algeria,443189615,Tamalous,36.8361791,6.6427952
Algeria,443367433,Hammam Boughrara,34.8936813,-1.6382574
Algeria,443422563,Aïn Témouchent,35.3048421,-1.1457771
Algeria,443422903,Sidi Ben Adda,35.3042768,-1.1815248
Algeria,447593737,Chelghoum Laïd,36.1605629,6.1673286
Algeria,452440133,El Bayadh,33.681782,1.022228
Algeria,453587405,Taza - Bordj El Emir Abdelkader,35.8652978,2.2674341
Algeria,453662331,Aïn Boucif,35.8905415,3.1513673
Algeria,453662334,Chellalet El Adhaoura,35.9396178,3.4140092
Algeria,453662336,Hammam Dhalaa,35.9280639,4.374637
Algeria,453666215,El Omaria,36.2671619,3.0270877
Algeria,454619814,El Abadia,36.2750279,1.6854432
Algeria,454641097,Sidi Amar,36.5424676,2.3058921
Algeria,454645064,Hadjout,36.5121198,2.4142888
Algeria,454650784,Chaâbet El Ameur,36.6363259,3.6960743
Algeria,454650785,Tizi Ghenif,36.5872274,3.7742759
Algeria,455443197,Aïn El Melh,34.8470491,4.1634964
Algeria,455500546,Seddouk,36.5472337,4.6894642
Algeria,455500554,Trouna,36.5070403,4.7578379
Algeria,455511464,Beni Ouartilane,36.4422585,4.8557425
Algeria,455517479,Hammam Guergour,36.3222697,5.0548526
Algeria,455517483,Bougaa,36.3322264,5.0895897
Algeria,455545062,Ighil Ouberouak,36.7023232,5.0389134
Algeria,455545064,Amizour,36.6436086,4.9038448
Algeria,455545066,Barbacha,36.5734726,4.9693825
Algeria,455545068,Bouandas,36.4941296,5.1012394
Algeria,455545070,Aïn Abessa,36.3000482,5.2953337
Algeria,455555425,Guijel,36.0908409,5.487335
Algeria,455555446,Hammam Sokhna,35.9767593,5.8083856
Algeria,455555450,Aïn Djasser,35.8596869,6.0012835
Algeria,455555458,Seriana,35.6925612,6.1850558
Algeria,455579590,Bordj Zemmoura,36.2677309,4.8411698
Algeria,455579595,Guenzet,36.3191815,4.8370281
Algeria,460797319,Texenna,36.6605708,5.7909778
Algeria,460797431,Beni Aziz,36.4645062,5.6490139
Algeria,460895922,Merouana,35.6320555,5.913138
Algeria,460895949,Oued El Ma,35.6448731,5.9953423
Algeria,460974275,Ras El Aioun,35.6758524,5.6515672
Algeria,460974309,Boumagueur,35.5051588,5.5525246
Algeria,460974323,N'Gaous,35.5547284,5.6108516
Algeria,461906152,Mila,36.451941,6.262331
Algeria,461906172,Oued Endja,36.4296241,6.1218697
Algeria,461906180,Ferdjioua,36.4073812,5.9419603
Algeria,461906185,Ibn Ziad,36.3829267,6.4720589
Algeria,461977234,Babar,35.1688559,7.1054786
Algeria,461977236,Khezara,36.3681295,7.5278729
Algeria,461977237,Sedrata,36.1356466,7.53412
Algeria,461981724,Bekouche Lakhdar,36.7032027,7.3040428
Algeria,462003370,Taoura,36.1668358,8.0424896
Algeria,462012535,Ouenza,35.9445854,8.1369011
Algeria,462012537,Aïn Zerga,35.6480159,8.2603257
Algeria,462020917,Zeribet El Oued,34.6830199,6.5047333
Algeria,462020919,Sidi Okba,34.7497613,5.9107849
Algeria,462020920,Cheria,35.2706778,7.7527115
Algeria,462023183,Besbes,36.7008806,7.8454765
Algeria,462024955,Kerkera,36.9304439,6.5842202
Algeria,462231832,Oued Taga,35.4323373,6.4146079
Algeria,462231837,Timgad,35.4938565,6.4705695
Algeria,462508963,Kaïs,35.4956337,6.9235555
Algeria,462508976,Taouzient,35.5107604,6.8087111
Algeria,462549388,Sidi Ameur,35.3814589,3.9068512
Algeria,462549470,Had Sahary,35.3506602,3.3640573
Algeria,462633852,Aïn Tarek,35.7813973,1.1302226
Algeria,462633891,Ammi Moussa,35.8702048,1.1081265
Algeria,462633911,Mediouna,36.1246927,0.7483582
Algeria,462633913,Sidi M'hamed Ben Ali,36.1433373,0.8442389
Algeria,462633914,Mazouna,36.1262742,0.8801926
Algeria,462633930,Aïn Tedles,35.9990969,0.294879
Algeria,462633934,Sidi Ali,36.0997945,0.4206226
Algeria,463218154,Sougueur,35.186167,1.496745
Algeria,463218168,Aïn Deheb,34.846403,1.5507838
Algeria,463218170,Zemmora,35.7205041,0.7594249
Algeria,463218171,Mendes,35.6507899,0.8644816
Algeria,463218174,Rahouia,35.53032,1.0237833
Algeria,464067879,Oued El Abtal,35.4552913,0.687517
Algeria,464284731,Youb,34.921672,-0.208054
Algeria,464486627,Balloul,34.9895932,0.475625
Algeria,464631977,Hammam Bou Hadjar,35.3790296,-0.9711585
Algeria,464632065,El Malah,35.3899817,-1.0959775
Algeria,464683403,Chaâbet El Leham,35.3367018,-1.1020618
Algeria,464766544,Oggaz,35.5621748,-0.2588196
Algeria,464766548,Aïn El Berd,35.3671349,-0.5120201
Algeria,464766551,Zahana,35.517616,-0.410225
Algeria,464766553,Sidi Brahim,35.260678,-0.567467
Algeria,464789603,Sidi Boudjenane,34.9431769,-1.9323444
Algeria,464789607,Nedroma,35.0107602,-1.74805
Algeria,465434692,Teleghma,36.1180204,6.3581086
Algeria,465434780,Aïn Kercha,35.9233662,6.7022898
Algeria,465524798,Ras El Oued,35.9445677,5.0319396
Algeria,465524839,Maoklane,36.396686,5.0769769
Algeria,465589390,Ighil Ali,36.3365327,4.4703167
Algeria,465589402,Guendouz,36.368882,4.4866713
Algeria,465589424,Medjana,36.1311024,4.669174
Algeria,489198737,El Idrissia,34.4486677,2.5312873
Algeria,489262954,Aïn El Ibel,34.3550616,3.2238301
Algeria,489290379,Faïdh El Botma,34.5286598,3.784909
Algeria,489290385,Djebel Messaad,34.9930304,4.0907504
Algeria,489290386,El Hamel,35.1309153,4.0879652
Algeria,490536990,El Abiodh Sidi Cheikh,32.896484,0.5463928
Algeria,490570861,Marsa Ben M'Hidi,35.0817992,-2.2043971
Algeria,490570863,Boukanoun,34.9747704,-2.0995852
Algeria,490570871,Souani,34.9221475,-1.9158423
Algeria,490604555,El Ouricia,36.283736,5.4086944
Algeria,490604560,Aïn El Kebira,36.3648446,5.5069356
Algeria,497122243,Bouguirat,35.7502319,0.2566146
Algeria,497122245,Mesra,35.8372794,0.1693314
Algeria,497122254,Mers El Hadjadj,35.7948853,-0.1652125
Algeria,497155693,Tenira,35.0199515,-0.5300619
Algeria,497170603,Souagui,36.1255019,3.265101
Algeria,498919990,Ahmer El Aïn,36.4773708,2.5646996
Algeria,498971186,Tolga,34.73212,5.3830752
Algeria,500193184,Hassi Messaoud,31.6957444,6.0604297
Algeria,500352443,Tinzaouten,19.9541906,2.9694782
Algeria,501761521,Djemila,36.3146187,5.7371562
Algeria,501761537,Aïn Beida Harriche,36.3959678,5.8941024
Algeria,501761542,Tassadane Haddada,36.5016155,5.8787288
Algeria,501799930,Boukhadra,35.7449518,8.0346837
Algeria,501825717,Echatt,36.8303087,7.8727514
Algeria,501851328,El Amria,35.5248267,-1.0145245
Algeria,533755670,Hydra,36.7474259,3.0401832
Algeria,552386351,Kheneg,33.7447402,2.7911348
Algeria,552409728,Hassi Bahbah,35.0721457,3.0265016
Algeria,552409737,Boughezoul,35.7030326,2.8431693
Algeria,581213367,Lardjem,35.7480295,1.5480772
Algeria,581213369,Bordj Bou Naama,35.8505025,1.6170851
Algeria,581240873,Ksar Chellala,35.2143453,2.3129403
Algeria,581240876,Zmalet El Emir Abdelkader,34.894093,2.3093354
Algeria,703355596,Guerouaou,36.5264595,2.886115
Algeria,810749486,Hassi Ben Okba,35.726419,-0.4671047
Algeria,810749489,Boufatis,35.6791406,-0.4117684
Algeria,810749490,Ben Freha,35.6937209,-0.4186546
Algeria,810749515,El Kerma,35.6186807,-0.5798446
Algeria,810749516,Es-Senia,35.6500999,-0.6241804
Algeria,810749518,Hassi Bounif,35.6912811,-0.4979622
Algeria,810753701,Oued Tlélat,35.5519239,-0.4522604
Algeria,810756248,Boutlélis,35.5729399,-0.8998452
Algeria,810762302,Aïn El Arbaa,35.4058264,-0.8811572
Algeria,818784414,Beni Amrane,36.6678481,3.5918611
Algeria,833944299,Bouhenni,35.561548,-0.0885759
Algeria,835877074,Honaine,35.178264,-1.6534421
Algeria,837023849,Oulhaça El Gherarba,35.2329028,-1.5047993
Algeria,841797699,Mansourah,34.8730025,-1.3296478
Algeria,841838477,Aïn Youcef,35.0472865,-1.3739319
Algeria,869746777,Mazagran,35.8964789,0.0729531
Algeria,929287939,Mahdia,35.4305691,1.7549535
Algeria,929382990,Mechraa Safa,35.3848636,1.0544339
Algeria,940959854,Ouled Slama,36.5534582,3.1153628
Algeria,951662807,Aziz,35.8239347,2.4517089
Algeria,964393476,Isser,36.7264659,3.6649705
Algeria,964565869,Aït Yahia Moussa,36.6379122,3.8862283
Algeria,979483576,Mers El Kebir,35.7277218,-0.7085452
Algeria,981700021,Douaouda,36.6737508,2.7901111
Algeria,981700025,Fouka,36.6615638,2.742117
Algeria,998564380,Ksar El Hirane,33.787475,3.1406529
Algeria,999885679,Hammam Debagh,36.4602654,7.2676947
Algeria,1000745863,Tamridjet,36.5721683,5.3746744
Algeria,1019348170,Oued Chorfa,36.1655491,2.5546056
Algeria,1019447024,Djelida,36.2027341,2.0795157
Algeria,1019508437,El Amra,36.3050171,1.8482739
Algeria,1019510663,El Karimia,36.1121742,1.5534446
Algeria,1019510814,Oum Drou,36.1966757,1.3913824
Algeria,1021764985,Ouled Ben Abdelkader,36.0238897,1.2761855
Algeria,1025765744,Aïn Merane,36.1620671,0.9758629
Algeria,1026201342,Dahra,36.2545642,0.8518821
Algeria,1033320728,Khemisti,36.625387,2.6797524
Algeria,1035297677,Berriane,32.8256322,3.7639006
Algeria,1035297701,Bounoura,32.4856037,3.7049786
Algeria,1035297707,El Atteuf,32.476746,3.7471239
Algeria,1035348369,N'Goussa,32.1406831,5.3103251
Algeria,1035356453,Aïn Beïda,31.9392925,5.3915209
Algeria,1035356458,Rouissat,31.9239554,5.3498372
Algeria,1035388347,Zelfana,32.3936629,4.2268033
Algeria,1035396532,Dhaïa Ben Dhahoua,32.5348228,3.6082436
Algeria,1038156340,Mezaourou,35.0006208,-1.9027416
Algeria,1038318454,Merad,36.4763774,2.4272954
Algeria,1049904231,El Hachem,35.3754274,0.4909404
Algeria,1052525460,Mamounia,35.4247978,0.141363
Algeria,1057262436,Beni Zentis,36.1115307,0.6639245
Algeria,1057795568,Achaacha,36.2445994,0.6355803
Algeria,1074619884,Aïn Touta,35.3752089,5.894213
Algeria,1117953861,Bouhamza,36.4450868,4.6855035
Algeria,1182317080,Souk El Khemis,36.612194,3.9856422
Algeria,1182509818,At Dwala,36.6188796,4.0824933
Algeria,1182509826,Ait Zmenzer,36.6370642,4.039063
Algeria,1195954686,Ouacif,36.523854,4.2049176
Algeria,1212675649,El Hachimia,36.2194302,3.8161128
Algeria,1240473692,Filfila,36.8976496,7.0548176
Algeria,1240473695,Ben Azzouz,36.8600024,7.2917539
Algeria,1332094349,Bordj Sabat,36.4018393,7.0456039
Algeria,1332406780,Cheraïa,37.0017763,6.5133033
Algeria,1332414579,Ouled Attia,36.9949643,6.3424894
Algeria,1334517971,Beni Oulbane,36.626026,6.6400608
Algeria,1334517975,Oum Toub,36.6889594,6.5758595
Algeria,1334532464,Bin El Ouiden,36.8081951,6.5668371
Algeria,1337015384,Souk Naâmane,35.8953079,6.3925749
Algeria,1337756092,Bardo,36.5308069,6.1222084
Algeria,1349282523,Bordj Ghedir,35.8991893,4.899182
Algeria,1350849495,Amalou,36.4774607,4.63266
Algeria,1350849498,Tamokra,36.3980867,4.6671349
Algeria,1356784489,Aïn Doukar,36.4988939,5.0378277
Algeria,1356784508,Beni Mouhli,36.5162044,4.9097421
Algeria,1356792074,Beni Chebana,36.4684262,4.8684047
Algeria,1357209053,Toudja,36.7525317,4.8971215
Algeria,1359687433,Targregt,36.5470412,5.2299195
Algeria,1359689414,Tizi N'Berber,36.6134839,5.2175598
Algeria,1368546179,Tifra,36.6664991,4.6962497
Algeria,1368549541,Ilmaten,36.6652371,4.7681771
Algeria,1370246767,Ighram,36.4622509,4.5042534
Algeria,1370291678,Taourirt,36.5728807,4.8104334
Algeria,1370291698,Semaoun,36.6084692,4.8224282
Algeria,1370339888,Taguemmount,36.6116043,5.0898734
Algeria,1370381871,Feraoun,36.5580756,4.8660488
Algeria,1373299402,Bellouladi,35.1361811,-0.6228938
Algeria,1388303309,Chekfa,36.7712723,5.9612456
Algeria,1405079756,El Madher,35.6258746,6.3706722
Algeria,1406479949,Sefiane,35.4379384,5.5597763
Algeria,1430981350,Ouled Si Slimane,35.61043,5.6322042
Algeria,1431001239,Djezzar,35.5082551,5.2676704
Algeria,1431038792,Aïn Khadra,35.5393686,4.9718744
Algeria,1438890521,Medjedel,35.1467087,3.6793899
Algeria,1439460912,Dar Chioukh,34.8972924,3.4897249
Algeria,1460396365,Ouled Yaïch,36.4970451,2.8610493
Algeria,1514750562,Sidi Khaled,34.3915907,5.0005177
Algeria,1514794418,Bouzina,35.2648362,6.0988647
Algeria,1514833483,Ichemoul,35.3095106,6.5100105
Algeria,1514842144,Bouhmama,35.3188013,6.7466351
Algeria,1540356602,Oum El Adhaim,36.0282758,7.6040482
Algeria,1545411028,Hanchir Toumghani,35.9346179,6.7412657
Algeria,1551260359,El Ogla,35.1887497,7.4688516
Algeria,1561549472,Belaiba,35.527774,5.1546938
Algeria,1561676303,Aïn Eddis,35.300042,4.1704228
Algeria,1565785263,Reguiba,33.5653009,6.7114196
Algeria,1565785698,Kouinine,33.4037855,6.8264542
Algeria,1565786076,Taghzout,33.4754769,6.7998514
Algeria,1565786170,Guemar,33.4916197,6.7977914
Algeria,1566167535,Bayadha,33.3278311,6.8885733
Algeria,1566167646,Robbah,33.2894337,6.9040129
Algeria,1566167652,Nekhla,33.2763121,6.9515739
Algeria,1566167739,Magrane,33.5625599,6.930939
Algeria,1573488063,Béni Abbès,30.1317426,-2.169031
Algeria,1573550069,Kenadsa,31.5545321,-2.432661
Algeria,1583376483,Tawrirt Ɛemrus,36.517172,4.4119552
Algeria,1657151225,Alger Centre,36.7763022,3.0584856
Algeria,1659485676,Sidi M'Hamed,36.7644238,3.0496319
Algeria,1659764376,Oued Koreiche,36.7853487,3.0430918
Algeria,1678539135,Aïn El Bia,35.8133273,-0.2871248
Algeria,1711754181,Bouarfa,36.4638905,2.8126394
Algeria,1748661064,الحامة,35.4642089,7.0836946
Algeria,1818161388,Hassi Delaa,33.4165651,3.5518967
Algeria,1856515102,Ali Mendjeli,36.253904,6.5758657
Algeria,1944484024,Bordj Arima,35.083108,-1.5578444
Algeria,1974927358,Remchi,35.0617268,-1.4318326
Algeria,2072091143,In Amenas,28.0386648,9.5761505
Algeria,2119580230,Djanet,24.5538847,9.484194
Algeria,2155117371,Abalessa,22.8895834,4.8469931
Algeria,2209242359,Gué de Constantine,36.6960642,3.0895611
Algeria,2377301721,Oued Rhiou,35.9607535,0.9180664
Algeria,2391093902,Baba Hassen,36.6943783,2.9718223
Algeria,2512322662,Bouhadjar,36.5034174,8.1060862
Algeria,2531694292,Zeralda,36.7123553,2.8409208
Algeria,2641137540,Dar El Beida,36.7152112,3.2096542
Algeria,2679573905,Boudjellil,36.3498654,4.4141916
Algeria,2752195875,El Mouradia,36.7474963,3.0500935
Algeria,2804971863,Ouled Rahmoune,36.1788485,6.701422
Algeria,2806242913,Beni Mered,36.523526,2.8616102
Algeria,2852022479,Hammadi Krouma,36.8441177,6.929106
Algeria,2852931042,Oued Ghir,36.7106296,4.9782915
Algeria,2922724122,Arzew,35.856348,-0.313678
Algeria,2929298156,Belouizdad,36.7442413,3.0783959
Algeria,2936211799,Bouzeguène,36.6179239,4.4761469
Algeria,2939758266,Oued El Alleug,36.5558374,2.7896358
Algeria,2940413374,El Madania,36.7420067,3.0665715
Algeria,2944119167,Khemis El Khechna,36.6500265,3.3308262
Algeria,2953775300,Zighoud Youcef,36.5327005,6.7091586
Algeria,2967079117,Oued Fodda,36.185966,1.5347489
Algeria,3014167925,Beni Ksila,36.881989,4.6643892
Algeria,3017340456,Emdjaz Edchich,36.7051396,6.8043312
Algeria,3017350123,Sidi Mezghich,36.6782798,6.7218765
Algeria,3028201605,Miliana,36.3047698,2.226821
Algeria,3028239347,Arib,36.2919441,2.0683322
Algeria,3028366169,El Attaf,36.2244328,1.6725159
Algeria,3040392237,Tamacine,33.0104035,6.012687
Algeria,3040392239,Blidet Amor,32.9417127,5.9744271
Algeria,3040399726,El Hadjira,32.6130464,5.5152002
Algeria,3040411041,Meggarine,33.1930214,6.0932032
Algeria,3040428134,El M'Ghair,33.9496809,5.921089
Algeria,3040428142,Djamâa,33.5304325,5.9892386
Algeria,3042693423,El Hadaïek,36.8252292,6.8890251
Algeria,3050365307,Bir El Arch,36.1303925,5.8392064
Algeria,3065495793,Alrar,28.6345729,9.8194482
Algeria,3085551146,El Hamadna,35.9062679,0.7761842
Algeria,3085551184,Djdiouia,35.9272152,0.830558
Algeria,3088478771,Taourirt Ighil,36.6995991,4.6977077
Algeria,3090988170,Bordj-Mira,36.5482053,5.2754927
Algeria,3105360278,Ghazaouet,35.093863,-1.86322
Algeria,3148980256,Metlili Chaanba,32.2605169,3.6259116
Algeria,3172476279,Aougrout,28.7074429,0.3406103
Algeria,3172476281,Fenoughil,27.6060965,-0.3021104
Algeria,3172476387,Sali,26.9612527,-0.0251553
Algeria,3172476388,Tamantit,27.7613334,-0.2657533
Algeria,3172476762,Tsabit,28.3509683,-0.2161001
Algeria,3209842489,Ain Arnat,36.1849367,5.3144869
Algeria,3224632592,Boumedfaa,36.3700317,2.4732963
Algeria,3241026346,Azeffoun,36.8930725,4.4203917
Algeria,3244674588,Aïn Azal,35.8178542,5.5111895
Algeria,3312614201,Sidi Amrane,33.4972965,6.0111235
Algeria,3329464803,Zaouiet Debagh,29.7026797,0.7128356
Algeria,3374136553,Tamlouka,36.1571757,7.1404114
Algeria,3452916441,Salah Bouchaour,36.7044252,6.8563693
Algeria,3457570013,Illizi,26.504191,8.479926
Algeria,3475267932,Guerrara,32.7885786,4.4882869
Algeria,3574502641,Medrissa,34.8924859,1.2458048
Algeria,3635144618,Ouled Fayet,36.7355249,2.9509064
Algeria,3645120159,Bouzareah,36.790372,3.0166197
Algeria,3673963242,Oued El Djemaa,35.7959797,0.6816434
Algeria,3755700078,Tizi Tindjit,36.5405974,5.0275437
Algeria,3779761638,Casbah,36.7846766,3.0595865
Algeria,3786548980,Bouhanifia,35.3151335,-0.0487475
Algeria,3790840624,Birine,35.6337386,3.2244016
Algeria,3823484201,Chechar,35.0383313,7.0042609
Algeria,3944299542,Zaouiet Kounta,27.2300419,-0.1933113
Algeria,3979471260,Emir Abdelkader,36.7518871,5.8486411
Algeria,3999497924,Adrar,27.8733807,-0.2874884
Algeria,4072579656,M'cisna,36.5637897,4.7103173
Algeria,4099243525,Mohammadia,36.7288713,3.1469178
Algeria,4099281394,El Magharia,36.7313349,3.1085569
Algeria,4108308385,Boghni,36.5407471,3.9571285
Algeria,4212497589,Sidi Amar,36.8214092,7.7206192
Algeria,4241795233,Sidi Ladjel,35.4381272,2.5157705
Algeria,4368057605,Aït Yenni,36.5829452,4.1964738
Algeria,4369434755,Beni Yagoub,34.468187,2.7870809
Algeria,4383641150,Beni Dergoun,35.7933416,0.801238
Algeria,4384390366,Aïn Tallout,34.9299907,-0.9542742
Algeria,4387185170,Rouached,36.4581588,6.0391589
Algeria,4506956466,Sidi Chami,35.6579939,-0.5220152
Algeria,4520491165,Chetouane,34.9207591,-1.2910642
Algeria,4552228445,Hassi R'Mel,32.9458855,3.273666
Algeria,4555604233,Sidi Lahcene,35.1651869,-0.6944968
Algeria,5339708283,El Had,36.6153341,4.7746404
Algeria,5854829483,Collo - القل,37.0066244,6.5700192
Egypt,27133981,الجونة‎,27.3989266,33.6741556
Egypt,29589887,عيون موسى,29.8888689,32.6369003
Egypt,29593397,الأدبية,29.9007515,32.4569409
Egypt,29906954,بور غالب,25.531711,34.633762
Egypt,31578820,بيلا,31.1727635,31.2209802
Egypt,270226451,قها,30.280632,31.206051
Egypt,270227007,طوخ,30.3540508,31.200979
Egypt,270227401,ميت غمر,30.7169001,31.2577644
Egypt,270227440,زفتى,30.715308,31.24712
Egypt,270227536,اجا,30.9419854,31.2903765
Egypt,298439914,مدينة الشروق,30.1488541,31.6295623
Egypt,299569009,الحوامدية,29.892851,31.2672452
Egypt,299570446,قليوب‎,30.178875,31.206436
Egypt,299573543,جرجا,26.3388704,31.8893907
Egypt,325783225,شبين القناطر,30.3125348,31.317601
Egypt,330191267,مدينة بدر,30.142806,31.742824
Egypt,331953850,ببا,28.9214178,30.985374
Egypt,331953872,الفشن,28.8232566,30.8995433
Egypt,331953881,مغاغة,28.6461831,30.8408123
Egypt,331953907,بنى مزار,28.4962396,30.802898
Egypt,331954202,سمالوط,28.30205,30.7141491
Egypt,332014482,قوصية,27.4390218,30.8161641
Egypt,332073408,طما,26.905611,31.435855
Egypt,332073542,طهطا,26.7676025,31.4955936
Egypt,332073585,المراغة,26.6993785,31.6039119
Egypt,332073659,المنشاة,26.4761397,31.803105
Egypt,332074139,البلينا,26.2332974,32.0019946
Egypt,332074246,فرشوط,26.0542345,32.1649013
Egypt,332074267,نجع حمادي,26.0489911,32.2416339
Egypt,332074431,دشنا,26.119088,32.463076
Egypt,332074724,قفـط,25.998703,32.816013
Egypt,332074802,قوص,25.915666,32.762969
Egypt,332074994,إسنا,25.2936689,32.5531993
Egypt,332075242,دراو,24.407994,32.924674
Egypt,332108921,دكرنس,31.0875714,31.5949593
Egypt,332186090,فارس,24.6144485,32.9038355
Egypt,332219151,مشتول السوق,30.3609392,31.3800534
Egypt,332495459,أجهور الكبرى,30.299241,31.1491022
Egypt,332504177,أبو قير,31.3203016,30.0641979
Egypt,332566835,مطر طارس,29.3635717,30.9041808
Egypt,332568455,سنورس,29.4136563,30.8680445
Egypt,332569650,أطسا,29.2405098,30.8002018
Egypt,332571014,الغرق,29.1357683,30.6930389
Egypt,336211787,منيا القمح,30.5119266,31.3465379
Egypt,336212989,بئر قطية,30.9542879,32.7457497
Egypt,336214286,بئر العبد,31.018138,33.0116944
Egypt,336216909,موط,25.4894682,28.9865889
Egypt,336220315,باريس,24.673692,30.605118
Egypt,336335743,الباويطى,28.35182,28.862992
Egypt,336355231,أبو منقار,26.506222,27.662008
Egypt,376304399,بورفؤاد,31.246623,32.320071
Egypt,395459213,المنزلة,31.1590119,31.9364962
Egypt,699327818,طلخا,31.0522251,31.3731608
Egypt,703527885,بلبيس,30.418758,31.56463
Egypt,767964923,بلاط,25.5615048,29.262811
Egypt,768026319,الضبعة,31.028943,28.4443762
Egypt,768030243,الشيخ زويد,31.2160502,34.1111023
Egypt,768030514,الحسنة,30.465278,33.781667
Egypt,768030919,أبو رديس,28.9036109,33.1875
Egypt,768033284,فيديمين,29.3811456,30.7784327
Egypt,768073561,سنهور,29.4100107,30.7614382
Egypt,768078662,الردسية قبلي,24.908181,32.8846299
Egypt,768078792,إدفو,24.980278,32.8747219
Egypt,768553824,القناطر الخيرية,30.1966159,31.133908
Egypt,768554401,ملوى,27.731944,30.8411109
Egypt,768556033,تطون,29.1493574,30.7781754
Egypt,768557743,الواسطة,29.337778,31.205556
Egypt,768565933,تلا,30.68002,30.943393
Egypt,768565966,الشهداء,30.5976369,30.8952927
Egypt,768565984,منوف,30.4665238,30.9339539
Egypt,768580580,أبو الشقوق,30.828611,31.599444
Egypt,768580600,كفر صقر,30.796389,31.626111
Egypt,768580931,مدينة السنبلاوين,30.8814711,31.4624047
Egypt,768584669,مركز دير مواس,27.6417998,30.8517509
Egypt,768584680,أبو قرقاص,27.930588,30.8377108
Egypt,768586326,إهناسية المدينة,29.087316,30.944062
Egypt,768588348,العياط,29.6195757,31.2581312
Egypt,768590098,الصف,29.5647221,31.2811109
Egypt,768598369,رأس البر,31.5132392,31.8337309
Egypt,768600810,سمنود,30.962778,31.244444
Egypt,768601971,إيتاي البارود,30.8869877,30.6646636
Egypt,768602038,كفر الزيات,30.8205561,30.815833
Egypt,768732191,ديروط,27.558611,30.807778
Egypt,768738298,الدير,25.333333,32.580556
Egypt,768741395,شيخ شاذلى,24.2,34.633333
Egypt,768751466,قارة أم الصغير,29.6216,26.4974578
Egypt,768752207,منديشة,28.351299,28.933352
Egypt,768752276,العوينة,28.3694236,28.9360984
Egypt,768775606,حلوان,29.8500001,31.333333
Egypt,768779143,عزبة التبين,29.783333,31.3
Egypt,768798152,طابا,29.492821,34.892366
Egypt,768799993,نويبع المزينة,28.9675,34.649722
Egypt,768812436,برما,30.8454682,30.9071055
Egypt,768815269,رشيد,31.404444,30.416389
Egypt,768815533,مطوبس,31.2933108,30.5232678
Egypt,769125281,كفر الدوار,31.1328304,30.1335334
Egypt,769129741,حوش عيسى,30.912778,30.290556
Egypt,769129756,فوه,31.2046788,30.5521708
Egypt,887725623,المحمودية,31.185486,30.5245424
Egypt,1039311052,أشمون,30.295582,30.97608
Egypt,1039314219,سمادون,30.3377752,30.9572367
Egypt,1039327711,إدكو‎,31.3057473,30.2985965
Egypt,1051468629,الصالحية الجديدة,30.631747,31.9392545
Egypt,1085316881,المنيا الجديدة,28.090786,30.8126461
Egypt,1088289428,قويسنا,30.5456644,31.1342982
Egypt,1090891081,سرس الليان,30.4439168,30.9707264
Egypt,1093710521,السنطة,30.7289818,31.1191356
Egypt,1094131552,كفر الجزار,30.4741652,31.1710364
Egypt,1127699160,بني سويف الجديدة,29.0320603,31.1067656
Egypt,1137313368,صافور,30.7921742,31.3958984
Egypt,1137313517,اتميدة,30.7653886,31.3417765
Egypt,1184124741,اخميم,26.562663,31.743443
Egypt,2209384485,مدينة وادي النطرون,30.3782016,30.3552079
Egypt,2522071771,NA,30.057258,32.5537019
Egypt,2522072515,NA,30.053677,32.5585453
Egypt,3235545411,مصيف بلطيم,31.5964786,31.1104399
Egypt,3783957266,فايد,30.3284806,32.3007771
Egypt,3979889685,المجد,31.0982764,30.6728182
Egypt,5218983633,NA,24.7120818,32.9461709
Egypt,5218983637,الكاجوج,24.6650374,32.9519559
Egypt,5381423392,العسيرات,26.3961227,31.8215201
Egypt,5794148997,New Assiut,27.2693562,31.2972204
Egypt,5930944470,Bani Hasan El-Shorouk,27.9000347,30.852238
Libya,260715301,العوينات‎,25.7766127,10.5630366
Libya,260715669,قراقره,26.5505744,13.2111543
Libya,260715722,الفجيج,26.5434446,13.314964
Libya,260716310,غدوه,26.438827,14.27264
Libya,260716413,تراغن Taraghin,25.9371,14.4308885
Libya,277270298,نالوت,31.8642267,10.9829826
Libya,375717610,صرمان,32.757598,12.572621
Libya,375721059,القره بوللي,32.742728,13.712796
Libya,1157457006,الرجبان,31.9403342,12.0913584
Libya,1157505021,يفرن,32.063839,12.527651
Libya,1159019627,شحات,32.808215,21.8696836
Libya,1159019634,سوسة,32.8979757,21.9653022
Libya,1169748259,الجميل,32.8533859,12.0595584
Libya,1169748265,رقدالين,32.8863864,11.9870728
Libya,1169748270,زلطن,32.9459142,11.8662879
Libya,1170179740,امساعد,31.6135318,25.0485024
Libya,1170179748,امساعد,31.605405,25.048457
Libya,1170259159,بياض,32.0000224,24.0127517
Libya,1170541982,رأس لانوف,30.586862,18.417789
Libya,1172146730,القبة,32.7630561,22.2417527
Libya,1172162124,أم الرزم,32.5317445,23.0087542
Libya,1172167545,التميمي,32.331313,23.059347
Libya,1172802069,رأس اجدير,33.149454,11.567936
Libya,1173193744,البردي,31.756018,25.081821
Libya,1173420973,جردس العبيد,32.3027386,20.9869275
Libya,1185649367,أبو قرين,31.4495127,15.2532013
Libya,1190768731,بن جواد,30.804405,18.077852
Libya,1191267828,محلة نعيمة,32.4330768,14.6676077
Libya,1193620130,الشويرف,29.9822795,14.2605546
Libya,1193695763,زله,28.550048,17.549951
Libya,1194502733,براك,27.55163,14.272144
Libya,1195255987,Al Mayah المايه,32.7918642,12.8852783
Libya,1198398303,ادري,27.4457392,13.0491001
Libya,1198419680,زويله Zawilah,26.163861,15.1251161
Libya,1214773929,جادو,31.953044,12.026091
Libya,1215763443,جعفر,32.142882,13.0555778
Libya,1221271187,بشر,30.2896072,19.4236558
Libya,1233055004,ككلة,32.062917,12.695647
Libya,1237297697,الجغبوب,29.7410961,24.5157988
Libya,1239730812,مرادة‎,29.2213763,19.2043945
Libya,1246799070,الحوامد,31.9754962,11.1622355
Libya,1246799080,تيجي,32.0103889,11.3583522
Libya,1246799127,كاباو,31.8463361,11.3406478
Libya,1246799128,بدر,32.0607887,11.5424707
Libya,1253979845,وازن,31.945646,10.669785
Libya,1264730570,العسة,32.8280514,11.6271918
Libya,1278520315,درج,30.1639493,10.4587356
Libya,1281223987,الرياينة,31.9951755,12.3463657
Libya,1286668670,إسبيعة,32.5369869,13.1768018
Libya,1565508856,أبو غيلان,32.2564249,13.038171
Libya,1565508876,أبيار السبيل,32.851389,13.441944
Libya,1565508919,الأبرق‎,32.786528,21.997782
Libya,1565508983,البخي,24.832511,14.4986529
Libya,1565509143,الحميدية,32.884444,13.390833
Libya,1565509178,الحطيه,26.5769596,12.9342343
Libya,1565509219,Al Hurshah,32.764722,12.673889
Libya,1565509284,الجوش,31.9947128,11.6731936
Libya,1565509383,المحروقه Al Mahruqah,27.5019982,14.0155815
Libya,1565509384,المجابرة,31.86,11.159167
Libya,1565509417,Al Mashashitah المشاشطه,32.8004609,12.9992739
Libya,1565509464,القنافيد,31.84092,11.830432
Libya,1565509498,العرقوب,31.946448,12.217953
Libya,1565509549,اقار,26.0936474,13.5521343
Libya,1565509703,اسبيطات,26.0954771,13.693092
Libya,1565509932,الطويبية,32.7776772,12.8392684
Libya,1565509942,أوجلة,29.140278,21.2975
Libya,1565509964,أولاد بدر,32.018866,11.967217
Libya,1565509988,اولاد جابر,31.9466308,12.15422
Libya,1565510039,أولاد مسعود,31.9724,12.121976
Libya,1565510129,أولاد يحيى,32.01652,12.517714
Libya,1565510329,الزرقان,32.015883,12.508514
Libya,1565510525,بطة,32.657778,21.109167
Libya,1565510638,بومريم,32.1447383,20.506459
Libya,1565510688,ابريك,26.5568364,13.1130219
Libya,1565510740,دريانة,32.3480012,20.3111096
Libya,1565511190,اجخره,29.2962533,21.6498982
Libya,1565511239,كرسة,32.849626,22.416987
Libya,1565511281,لملودة,32.7813412,22.1422593
Libya,1565511323,مراوة‎,32.483056,21.404167
Libya,1565511332,مرتوبة,32.5751478,22.7618696
Libya,1565511354,مسة,32.751944,21.626667
Libya,1565511456,نسمة,31.3919333,13.3284421
Libya,1565511533,Qabilat Bani Musallam,32.60491,14.050981
Libya,1565511715,قندولة,32.537778,21.575833
Libya,1565512631,سواني بن آدم,32.7122034,13.0675226
Libya,1565512664,صياد,32.816667,12.95
Libya,1565512693,شاتل الغابات,32.852222,13.285833
Libya,1565512727,سوكنه,29.069411,15.782664
Libya,1565512736,اسلنطة,32.590278,21.715833
Libya,1565512821,تاكنس,32.480211,21.124489
Libya,1565512848,الزويه Azwaiya,27.5738026,14.2268086
Libya,1565512958,تساوه,26.0875113,13.5080513
Libya,1565512992,تويوه,26.563073,13.1528461
Libya,1565513008,توش,26.5408647,13.0970753
Libya,1565513066,ام الارانب Umm al Aranib,26.1329064,14.7341786
Libya,1565513091,ونزريك,27.4818424,13.3305317
Libya,1565513116,زعرارة,31.920649,11.652961
Libya,1574963951,توكرة,32.532222,20.572222
Libya,1574963952,تازربو,25.6716095,21.0621118
Libya,2628393721,سمنو,27.2754103,14.8842307
Libya,2744041747,الفخفاخة,26.5627074,13.1260524
Libya,2750711785,بنت بيه,26.643809,13.6532273
Libya,2916531179,الديسه,26.5863816,12.8207919
Libya,3237889499,مدينه المرج القديمه,32.5006761,20.8929729
Libya,3240603834,مرتوبة,32.5987061,22.7717326
Libya,3302658161,القواسم,32.2198895,13.0428058
Libya,3303648800,القريات,30.3829513,13.5853886
Libya,3307096902,وادي جارف,31.0794046,16.309476
Libya,3309936122,الزيغن,27.3694561,14.9128119
Libya,3358128553,الرقيبه,26.6047089,13.559371
Libya,3373695520,زاوية الباقول,31.9840052,12.4318872
Libya,3491677511,الكريمية,32.7540993,13.0867342
Libya,3497125512,الطويشة,32.6380615,13.0718724
Libya,3616496301,الخلائفة,31.9889267,12.4803636
Libya,3702245425,الزنتان,31.9303613,12.248362
Libya,4153684744,تمنهنت,27.2108188,14.6263766
Libya,4215543591,أمزير,32.0683519,12.6937257
Libya,5176944506,لبدة الكبرى,32.6387925,14.2797505
Morocco,50789916,Moulay Ali Chérif مولاي علي الشريف,31.284735,-4.266987
Morocco,60107470,Skhirat ⵚⵅⵉⵔⴰⵜ الصخيرات,33.850672,-7.028026
Morocco,63439010,Tiflet ⵜⵉⴼⴼⵍⵜ تيفلت,33.894009,-6.31673
Morocco,87828616,Imlil ⵉⵎⵍⵉⵍ إمليل,31.136817,-7.920757
Morocco,206385199,Ifrane ⵉⴼⵔⴰⵏ إفران,33.527605,-5.107408
Morocco,206385324,Azrou ⴰⵣⵔⵓ أزرو,33.436117,-5.221913
Morocco,206385718,El Hajeb ⵍⵃⴰⵊⴱ الحاجب,33.690156,-5.371938
Morocco,206386985,Erfoud ⴰⵔⴼⵓⴷ أرفود,31.4324061,-4.2342572
Morocco,206387129,Midelt ⴰⵡⵟⴰⵟ ميدلت,32.680347,-4.739897
Morocco,245408229,Mirleft ⵎⵉⵔⵍⴼⵜ ميرلفت,29.579707,-10.031733
Morocco,256919926,Sidi Ifni ⵙⵉⴷⵉ ⵉⴼⵏⵉ سيدي إفني,29.3791253,-10.1715632
Morocco,256926751,NA,29.802491,-9.83336
Morocco,267352453,Tata ⵟⴰⵟⴰ طاطا,29.746392,-7.9696051
Morocco,332035940,Chefchaouen ⵛⴼⵛⴰⵡⵏ شفشاون,35.1687748,-5.2683454
Morocco,345262906,Oukaïmeden ⵓⴽⴰⵢⵎⴷⴰⵏ أوكايمدن,31.205279,-7.8613235
Morocco,351090944,Taghjijt ⵜⴰⵖⵊⵉⵊⵜ تغجيجت,29.0607261,-9.4233205
Morocco,351100571,Bouizakarne ⴱⵓⵢⵣⴰⴽⴰⵔⵏ بو يزكارن,29.177425,-9.711408
Morocco,351141885,Taznakht ⵜⴰⵣⵏⴰⵅⵜ تازناخت,30.5772847,-7.204837
Morocco,365060850,Aït Ben Haddou ⴰⵢⵜ ⴱⵏ ⵃⴷⴷⵓ آيت بن حدو,31.0451122,-7.1310323
Morocco,387808365,Tafraout ⵜⴰⴼⵔⴰⵡⵜ تافراوت,29.720472,-8.9744529
Morocco,387836972,Zagora ⵣⴰⴳⵓⵔⴰ زاكورة,30.328035,-5.837139
Morocco,389620291,Taliouine ⵜⴰⵍⵉⵡⵉⵏ تالوين,30.5314629,-7.9215207
Morocco,389805207,Oued Laou ⵡⴰⴷ ⵍⴰⵡ واد لاو,35.450492,-5.093029
Morocco,389902312,Issaguen ⵉⵙⴰⴳⵏ اساكن,34.916794,-4.569654
Morocco,391544955,Saïdia ⵙⵄⵉⴷⵉⵢⴰ السعيدية,35.0822208,-2.2245756
Morocco,391550616,Ahfir ⴰⵃⴼⵉⵔ أحفير,34.955281,-2.100793
Morocco,391616757,Tendrara ⵜⵏⴷⵕⴰⵕⴰ تندرارة,33.049438,-2.000089
Morocco,401292573,Bni Tadjite ⴱⵏⵉ ⵜⴰⴷⵊⵉⵜ بني تادجيت,32.289782,-3.466617
Morocco,412359194,Zaida ⵣⴰⵢⴷⴰ زايدة,32.8192644,-4.9602291
Morocco,429576678,Sidi Zouine ⵙⵉⴷ ⵣⵡⵉⵏ سيدي الزوين,31.6681645,-8.3461335
Morocco,431291872,Imouzzer Kandar ⵉⵎⵓⵣⵣⴰⵔ ⴽⵏⴷⵕ إيموزار كندر,33.733423,-5.010495
Morocco,431291966,Sefrou ⵚⴼⵕⵓ صفرو,33.824898,-4.833336
Morocco,439194523,Meski ⵎⵙⴽⵉ مسكي,31.859381,-4.280053
Morocco,441902349,Tounfite ⵜⵓⵏⴼⵉⵜ تونفيت,32.472297,-5.2439123
Morocco,442664929,Boulemane ⴱⵓⵍⵎⴰⵏ بولمان,33.365969,-4.7300908
Morocco,500887150,Imilchil ⵉⵎⵉⵍⵛⵉⵍ إملشيل,32.156119,-5.633585
Morocco,516604713,Amskroud ⴰⵎⵙⴽⵔⵓⴹ أمسكروض,30.531111,-9.330927
Morocco,516619392,Tamri ⵜⴰⵎⵔⵉ تامري,30.6966311,-9.8250377
Morocco,522044209,Aourir ⴰⵡⵔⵉⵔ أورير,30.498085,-9.671097
Morocco,537993095,Souk El Arba Du Gharb ⵙⵓⵇ ⵍⴰⵔⴱⵄⴰ ⵏ ⵍⵖⴰⵔⴱ سوق الأربعاء الغرب,34.6875201,-6.0002583
Morocco,543839067,Oulmès ⵡⴰⵍⵎⴰⵙ ولماس,33.425509,-6.004488
Morocco,544685081,Imzouren ⵉⵎⵣⵓⵔⵏ إمزورن,35.1462944,-3.8497277
Morocco,548649117,Aknoul ⴰⴽⵏⵓⵍ اكنول,34.65602,-3.865259
Morocco,589087793,Oualidia ⵍⵡⴰⵍⵉⴷⵢⵢⴰ الوليدية,32.7314358,-9.0340271
Morocco,606940190,Ait Baha ⴰⵉⵜ ⴱⴰⵀⴰ ايت باها,30.070334,-9.154578
Morocco,624638565,Kasba Tadla ⵇⵚⴱⵜ ⵜⴰⴷⵍⴰ قصبة تادلة,32.602894,-6.269706
Morocco,626127748,Goulmima ⴳⵓⵍⵎⵉⵎⴰ گلميمة,31.692627,-4.953262
Morocco,663766321,Er-Rich ⴰⵔⵔⵉⵛ الريش,32.25677,-4.498189
Morocco,698657908,Sidi Bibi ⵙⵉⴷⵉ ⴱⵉⴱⵉ سيدي بيبي,30.237084,-9.526828
Morocco,798481559,Igherm ⵉⵖⵔⵎ إغرم,30.089004,-8.460942
Morocco,843853080,Taounate ⵜⴰⵡⵏⴰⵜ تاونات,34.538476,-4.635994
Morocco,921785476,El Attaouia ⵍⵄⵟⵟⴰⵡⵢⵢⴰ العطاوية,31.8358768,-7.3133564
Morocco,959654244,M'rirt ⵎⵔⵉⵔⵜ مريرت,33.163826,-5.565428
Morocco,1016266404,Ouazzane ⵡⴰⵣⴰⵏ وزان,34.796757,-5.578493
Morocco,1016372473,Jorf El Melha ⵊⵯⵕⴼ ⵍⵎⵍⵃⴰ جرف الملحة,34.488696,-5.509151
Morocco,1017801605,Moulay Idriss Zerhoun ⵎⵓⵍⴰⵢ ⴷⵔⵉⵙ ⵣⵕⵀⵓⵏ مولاي إدريس,34.055188,-5.525518
Morocco,1025446549,Imsouane ⵉⵎⵙⵡⴰⵏ إمسوان,30.841899,-9.819964
Morocco,1027217239,Tazzarine ⵜⴰⵣⴰⵔⵉⵏ تازارين,30.7830658,-5.5633956
Morocco,1035267187,Aoulouz ⴰⵡⵍⵓⵣ اولوز,30.673307,-8.180695
Morocco,1035604241,Oulad Berhil ⵡⵍⴰⴷ ⴱⴰⵔⵃⵉⵍ اولاد برحيل,30.6364,-8.477589
Morocco,1035638774,Agdz ⴰⴳⴷⵣ أكدز,30.6943155,-6.4489453
Morocco,1036329834,Massa ⵎⴰⵙⵙⴰ ماسة,29.972463,-9.6409
Morocco,1037240744,Talsint ⵜⴰⵍⵙⵉⵏⵜ تالسينت,32.535512,-3.439467
Morocco,1038353027,Tarfaya ⵟⴰⵔⴼⴰⵢⴰ طرفاية,27.9401204,-12.9249934
Morocco,1039432794,Aferkat ⴰⴼⵔⴽⴰⵜ أفركات,28.6711061,-10.2989505
Morocco,1041369692,El Beddouza ⴱⴷⴷⵓⵣⴰ البدوزة,32.541766,-9.278065
Morocco,1041530755,Sidi Abed ⵙⵉⴷⵉ ⵄⴰⴱⴷ سيدي عابد,33.0493573,-8.6886396
Morocco,1043792946,Sidi Bouzid ⵙⵉⴷⵉ ⴱⵓⵣⵉⴷ سيدي بوزيد,33.229519,-8.550912
Morocco,1049475197,Sidi Yahya du Gharb ⵙⵉⴷⵉ ⵉⵃⵢⴰ ⵏ ⵍⵖⴰⵔⴱ سيدي يحيى الغرب,34.3078039,-6.3037218
Morocco,1049724527,Abaynou ⴰⴱⴰⵢⵏⵓ أبَينو,29.0948412,-10.0192091
Morocco,1067787235,Tioughza ⵜⵉⵡⵖⵣⴰ تيوغزة,29.3856558,-9.9584455
Morocco,1068452488,Lakhsas ⵍⴰⵅⵚⴰⵚ لخصاص,29.356141,-9.755333
Morocco,1078787096,Biougra ⴱⵢⵓⴳⵔⴰ بيوگرى,30.215517,-9.368543
Morocco,1079088982,Fnideq ⴼⵏⵉⴷⴰⵇ الفنيدق,35.8392089,-5.3614246
Morocco,1081966146,Inezgane ⵉⵏⴻⵣⴳⴰⵏ إنزگان,30.3562929,-9.5459347
Morocco,1082509998,Temsia ⵜⴻⵎⵙⵉⵢⴰ التمسية,30.363795,-9.417027
Morocco,1083782157,Ouled-Teima ⴰⵡⵍⴰⴷ ⵜⴰⵢⵎⴰ أولاد تايمة,30.3927088,-9.2132982
Morocco,1101601383,Al Aaroui ⵍⵄⴰⵔⵡⵉ العروي‎,35.010185,-3.012265
Morocco,1102143434,Ben Taïeb ⴱⵏ ⵟⵢⵢⴱ بن الطيب,35.045437,-3.454995
Morocco,1102345303,Dar El Kebdani ⴷⴰⵕ ⴽⴱⴷⴰⵏⵉ دار الكبداني,35.1212289,-3.3320611
Morocco,1104795892,Bni Bouayach ⴰⵉⵜ ⴱⵓⵄⵢⴰⵛ بني بوعياش,35.102236,-3.841024
Morocco,1108873396,Sabaa Aiyoun ⵙⴱⵄ ⵄⵢⵓⵏ سبع عيون,33.903146,-5.376872
Morocco,1108884802,Aït Melloul ⴰⵢⵜ ⵎⵍⵍⵓⵍ أيت ملول,30.338128,-9.504277
Morocco,1108898331,Agourai ⴰⴳⵓⵔⴰⵢ أكوراي,33.643846,-5.589918
Morocco,1109045643,Youssoufia ⵢⵓⵙⴼⵉⵢⴰ اليوسفية,32.245801,-8.532439
Morocco,1110186094,Belfaa ⴱⵍⴼⴰⵄ بلفاع,30.048327,-9.5651814
Morocco,1119720107,Echemmaia ⵛⵎⴰⵄⵉⵢⴰ الشماعية,32.0774118,-8.628196
Morocco,1119782419,Imintanoute ⵉⵎⵉ ⵏ ⵜⴰⵏⵓⵜ إيمنتانوت,31.173503,-8.8518
Morocco,1120463537,Gourrama ⴳⵯⵔⵔⴰⵎⴰ كرامة,32.341425,-4.073812
Morocco,1139686821,Ksar Igli ⵇⵚⵕ ⵉⴳⵍⵉ قصر إگلي,31.5522691,-4.9015693
Morocco,1139907528,Tahannaout ⵜⴰⵃⵏⴰⵡⵜ تحناوت,31.36723,-7.943751
Morocco,1140727169,Tinejdad ⵜⵉⵏⵊⴷⴰⴷ تنجداد,31.510201,-5.03382
Morocco,1165448862,Agouim ⴰⴳⵡⵉⵎ أگويم,31.1556037,-7.4614569
Morocco,1177025218,Jerf ⵊⴰⵔⴼ الجرف,30.3761304,-9.3511523
Morocco,1180698809,Tamansourt ⵜⴰⵎⵏⵚⵓⵔⵜ تامنصورت,31.755184,-8.109083
Morocco,1180883985,Tameslouht ⵜⴰⵎⵚⵍⵓⵃⵜ تمصلوحت,31.495084,-8.098377
Morocco,1180884012,NA,31.4149676,-8.0648667
Morocco,1180884233,NA,31.5099837,-8.0414285
Morocco,1180884628,NA,31.5365152,-8.029998
Morocco,1180884647,NA,31.4193126,-8.0753603
Morocco,1180884742,NA,31.4787533,-8.0726269
Morocco,1203056658,Midar-ⵎⵉⴹⴰⵕ-ميضار,34.939898,-3.534348
Morocco,1210538786,El Kelâat Es-Sraghna ⵍⵇⵍⵄⴰ ⵏ ⵙⵕⴰⵖⵏⴰ قلعة السراغنة,32.05433,-7.40676
Morocco,1212629102,Sidi Bennour ⵙⵉⴷⵉ ⴱⵏⵏⵓⵕ سيدي بنور,32.6507792,-8.4242087
Morocco,1242359872,Debdou ⴷⴱⴷⵓ دبدو,33.986368,-3.039726
Morocco,1246032657,NA,31.3625555,-8.1345662
Morocco,1248177356,Martil ⵎⴰⵔⵜⵉⵍ مرتيل,35.617441,-5.274154
Morocco,1329118952,Assa ⴰⵙⵙⴰ آسـا,28.611352,-9.436696
Morocco,1342183147,Icht ⵉⵛⵜ اشت,29.0539378,-8.8462922
Morocco,1355048190,Jamaat Shaim ⵊⵎⵄⵜ ⵏ ⵙⵃⴰⵢⵎ جمعة سحيم,32.349518,-8.841235
Morocco,1355112728,Bouguedra ⴱⵓⴳⴷⵔⴰ ثلاث بو كدرة,32.254175,-8.982826
Morocco,1394776565,Souihla ⵙⵡⵉⵀⵍⴰ سويهلة,31.651304,-8.1830071
Morocco,1396291882,Benslimane ⴱⴰⵏⵙⵍⵉⵎⴰⵏ بن سليمان,33.6228983,-7.1267176
Morocco,1396339082,Azilal ⴰⵣⵉⵍⴰⵍ أزيلال,31.959295,-6.570991
Morocco,1421397435,Karia Ba Mohamed ⵇⵕⵢⵜ ⴱⴱⵯⴰ ⵎⵓⵃⵎⵎⴷ قرية با محمد,34.364056,-5.214573
Morocco,1442194976,Moulay Brahim ⵎⵓⵍⴰⵢ ⴱⵕⴰⵀⵉⵎ مولاي إبراهيم,31.2858455,-7.9654578
Morocco,1452642360,Bouanane ⴱⵓⵄⵏⴰⵏ بوعنان,32.039244,-3.04928
Morocco,1544827304,Asni ⴰⵙⵏⵉ أسني,31.2496355,-7.980004
Morocco,1574912858,Tafersit ⵜⴰⴼⵔⵙⵉⵜ تفرسيت,35.00693,-3.540866
Morocco,1576254205,Fam El Hisn ⴼⴰⵎ ⵍⵃⵚⴰⵏ فم الحصن,29.013582,-8.886818
Morocco,1578271106,Bab Berred ⴱⴰⴱ ⴱⵔⵔⴷ باب برد,34.998897,-4.890298
Morocco,1578290541,Targuist ⵜⴰⵔⴳⵉⵙⵜ تارجيست,34.939869,-4.320451
Morocco,1578437894,Zaïo ⵣⴰⵢⵢⵓ زايو,34.941906,-2.734164
Morocco,1578444301,اكليم Aklim ⴰⴽⵍⵉⵎ,34.886741,-2.518554
Morocco,1578592887,Zeghanghane ⴰⵣⵖⴰⵏⵖⴰⵏ أزغنغان,35.155014,-3.004546
Morocco,1596110410,Askaoun ⴰⵙⴽⴰⵡⵏ اسكاون,30.7387362,-7.7767754
Morocco,1604218835,El Menzel ⵍⵎⵏⵣⵍ المنزل,33.83673,-4.548401
Morocco,1604332522,Bhalil ⴱⵀⴰⵍⵉⵍ البهاليل,33.852241,-4.870181
Morocco,1604344084,Aïn Bni Mathar ⵄⵉⵏ ⴱⵏⵉ ⵎⵟⵀⵕ عين بني مطهر,34.013156,-2.023083
Morocco,1623947997,Aousserd ⴰⵡⵙⴰⵔⴷ أوسرد,22.567,-14.312906
Morocco,1645163218,M'Diq ⵎⴹⵢⴰⵇ المضيق,35.6833598,-5.3232161
Morocco,1650573952,Ouaouizaght ⵡⴰⵡⵉⵣⵖⵜ واويزغت,32.1586977,-6.3556893
Morocco,1651518898,Mzizil Tillechte ⵎⵥⵉⵥⵉⵍ ⵜⵉⵍⵍⵛⵜ مزيزيل تيلشت,32.235434,-4.724272
Morocco,1653069314,Assoul ⴰⵙⵓⵍ أسول,31.94966,-5.202998
Morocco,1672231785,Jorf ⵊⵯⵕⴼ جرف,31.4948858,-4.4049174
Morocco,1683088190,Oulad Ayyad ⵡⵍⴰⴷ ⵄⵢⵢⴰⴷ أولاد عياد,34.0839266,-4.6079255
Morocco,1688890307,Selouane ⵙⵍⵡⴰⵏ سلوان,35.07284,-2.941719
Morocco,1723404758,Foum Zguid ⵉⵎⵉ ⵥⴰⴳⴳⵉⴷ فم زكيد,30.085933,-6.874903
Morocco,1723406414,Tissint ⵜⵉⵙⵉⵏⵜ تسينت,29.903192,-7.317869
Morocco,1723406957,Akka ⴰⵇⵇⴰ أقا,29.391861,-8.256762
Morocco,1725334403,Driouch الدريوش,34.97694,-3.391005
Morocco,1781080214,El Borouj ⵍⴱⵕⵓⵊ البروج,32.504976,-7.192731
Morocco,1808258244,Amizmiz ⴰⵎⵥⵎⵉⵥ أمزميز,31.2171012,-8.2332754
Morocco,1825171721,Bouznika ⴱⵓⵣⵏⵉⵇⴰ بوزنيقة,33.781005,-7.1610294
Morocco,1837826627,Achouria ⵄⴰⵛⵓⵕⵢⵢⴰ العاشورية,31.5089142,-4.422662
Morocco,1837873392,Tighiourine ⵜⵉⵔⵄⵉⵡⵉⵏ تيرعيورين,31.9352627,-4.4084136
Morocco,1846148091,Tissa ⵜⵉⵙⵙⴰ تيسة‎,34.28657,-4.665632
Morocco,1863737102,Ain Taoujdate ⵄⵉⵏ ⵜⴰⵡⵊⵟⴰⵜ عين تاوجدات,33.940302,-5.208052
Morocco,1863757417,Beni Ensar ⴱⵏⵉ ⵏⵚⴰⵔ بني انصار,35.259687,-2.933644
Morocco,1863759656,El Aïoun Sidi Mellouk ⵍⵄⵢⵓⵏ ⵙⵉⴷⵉ ⵎⵍⵍⵓⴽ العيون سيدي ملوك,34.578344,-2.502961
Morocco,1863760202,Guercif ⴳⴰⵔⵙⵉⴼ گرسيف,34.225576,-3.352345
Morocco,1863762442,Jerada ⵊⵔⴰⴷⴰ جرادة,34.310531,-2.159979
Morocco,1864948625,Sidi Allal El Bahraoui ⵙⵉⴷⵉ ⵄⵍⵍⴰⵍ ⴰⴱⵃⵔⴰⵡⵉ سيدي علال البحراوي,34.010715,-6.532357
Morocco,1864948632,Oued Amlil ⵡⴰⴷ ⴰⵎⵍⵉⵍ واد أمليل,34.191562,-4.267604
Morocco,1865067687,Ain Harrouda ⵄⵉⵏ ⵃⴰⵔⵓⴷⴰ عين حرودة,33.635107,-7.450797
Morocco,1865067691,Tit Mellil ⵜⵉⵟ ⵎⵍⵉⵍ تيط مليل,33.551412,-7.483552
Morocco,1865067712,Médiouna ⵎⴰⴷⵢⵓⵏⴰ مديونة,33.456251,-7.51944
Morocco,1865092943,Ras Al Ain ⵕⴰⵙ ⵍⵄⵉⵏ رأس العين,32.9815421,-7.3933264
Morocco,1865092958,Ben Ahmed ⴱⵏ ⵃⵎⴷ بن أحمد,33.0655386,-7.2463698
Morocco,1865118038,Bejaad ⴱⵊⵊⵄⴷ بجعد,32.769785,-6.394983
Morocco,1865118174,Souk Sebt Oulad Nemma ⵙⵓⵇ ⵙⴱⵜ ⵡⵍⴰⴷ ⵏⵎⴰ سوق السبت أولاد النمة,32.294753,-6.700659
Morocco,1865118231,Boujniba ⴱⵓⵊⵏⵉⴱⴰ بو جنيبة,32.898004,-6.776919
Morocco,1865136226,Azemmour ⴰⵣⵎⵎⵓⵔ أزمور,33.288141,-8.343206
Morocco,1866539871,Tamelelt ⵜⴰⵎⵍⵍⴰⵍⵜ تملالت,31.8171219,-7.5097543
Morocco,1866540074,Ait Ourir ⴰⵢⵜ ⵓⵔⵉⵔ ايت اورير,31.563898,-7.662276
Morocco,1866580814,Skoura ⵙⴽⵓⵔⴰ سكورة,31.060412,-6.55755
Morocco,1871530439,Dar Bel Amri ⴷⴰⵕ ⴱⵍⵍⵄⵎⵔⵉ دار بلعمري,34.189104,-5.971499
Morocco,1875079493,Bir Jdid ⴱⵉⵔ ⵊⴷⵉⴷ البير الجديد,33.37377,-7.998016
Morocco,1877689255,Sidi Yahya Zaer ⵙⵉⴷⵉ ⵉⵃⵢⴰ ⵏ ⵣⵄⵉⵔ سيدي يحيى زعير,33.8262331,-6.9039822
Morocco,1878654081,Rommani ⵕⵯⵎⵎⴰⵏⵉ الرماني,33.528608,-6.604434
Morocco,1878654086,Fkih Ben Salah ⴼⵇⵉⵀ ⴱⵏ ⵚⴰⵍⵃ الفقيه بن صالح,32.504541,-6.6860405
Morocco,1884808332,Sidi Taibi ⵙⵉⴷⵉ ⵟⵢⵢⴱⵉ سيدي طيبي,34.1916611,-6.6844815
Morocco,1884808398,Dar Gueddari ⴷⴰⵕ ⴳⴷⴷⴰⵔⵉ دار الكداري,34.4208162,-6.0941702
Morocco,1884808491,Sidi Bouknadel ⵙⵉⴷⵉ ⴱⵓⵇⵏⴰⴷⵍ سيدي بوقنادل,34.123948,-6.733029
Morocco,1884851469,Farkhana ⴼⴰⵕⵅⴰⵏⴰ فرخانة,35.286107,-2.980918
Morocco,1884851502,Beni Chiker ⴱⵏⵉ ⵛⵉⴽⵔ جماعة بني شيكر,35.277213,-3.013687
Morocco,1885869493,Had Soualem ⵃⴰⴷ ⵙⵡⴰⵍⵎ حـد الـسـوالـم,33.422256,-7.8534097
Morocco,1886650445,Ifrane Atlas-Saghir ⵉⴼⵔⴰⵏ ⵏ ⴰⵟⵍⴰⵙ ⵎⵥⵥⵉⵏ يفران الأطلس الصغير,29.218819,-9.491069
Morocco,1888060941,Tarsouat ⵜⴰⵔⵙⵡⴰⵜ تارسوات,29.584446,-9.026641
Morocco,1894017189,Sidi Boubker ⵙⵉⴷⵉ ⴱⵓⴱⴽⵔ سيدي بوبكر,34.4773665,-1.7343057
Morocco,1898652419,Sebt Guerdane ⵙⴱⵜ ⵍⴳⵔⴷⴰⵏ سبت الكردان,30.3765279,-9.0208285
Morocco,1920931046,Mechra Bel Ksiri ⵎⵛⵕⵄ ⴱⵍⵍⵇⵚⵉⵕⵉ مشرع بلقصيري,34.573416,-5.956615
Morocco,1929403710,Tichla ⵜⵉⵛⵍⴰ تشلا,21.6347955,-14.8938895
Morocco,1931356549,Souira Qdima ⵎⵓⴳⴰⴹⵓⵕ ⵜⴰⵇⴱⵓⵕⵜ الصويرة القديمة,32.0402216,-9.3387547
Morocco,1932523192,Melga el Ouidane ⵎⵍⴳⴰ ⵍⵡⵉⴷⴰⵏ ملقى الويدان,34.5577801,-3.0257302
Morocco,1938288565,Ihaddaden ⵉⵃⴷⴷⴰⴷⵏ إحدادن,35.1618146,-2.9621317
Morocco,1943405251,Bni Drar ⴱⵏⵉ ⴷⵔⴰⵔ بني درار,34.859507,-1.991664
Morocco,1943405282,Sidi Slimane Echcharaa ⵙⵉⴷⵉ ⵙⵍⵉⵎⴰⵏ ⵛⵕⵕⴰⵄⴰ سيدي سليمان الشارة,34.909135,-2.349642
Morocco,1953085996,Anjra ⴰⵏⵊⴰⵔⴰ أنجرة,35.6642411,-5.5110678
Morocco,1954988611,Harhoura ⵀⵔⵀⵓⵔⴰ هرهورة,33.914435,-6.970269
Morocco,1955907934,Loulad ⵍⵡⵍⴰⴷ لولاد,32.991959,-7.128576
Morocco,1955914342,Deroua ⴷⵔⵡⴰ الدورة,33.3717782,-7.5358349
Morocco,1955914400,Nouaceur ⵏⵡⴰⵚⵕ النواصر,33.379465,-7.618914
Morocco,1955914405,Bouskoura ⴱⵓⵙⴽⵓⵔⴰ بوسكورة,33.456443,-7.650666
Morocco,1955924625,Sidi Rahal Chatai ⵙⵉⴷⵉ ⵕⵃⵃⴰⵍ سيدي رحال,33.471596,-7.956963
Morocco,1955924632,Dar Bouazza ⴷⴰⵕ ⴱⵓⵄⵣⵣⴰ دار بوعزة,33.5215831,-7.8164369
Morocco,1955924640,Chtouka ⵛⵜⵓⴽⴰ شتوكة,33.3132865,-8.165285
Morocco,1955937958,Ain El Aouda ⵄⵉⵏ ⵄⵡⴷⴰ عين العودة,33.803077,-6.79413
Morocco,1957657314,Tamesna ⵜⴰⵎⵙⵏⴰ تامسنا,33.8319811,-6.9203446
Morocco,1959257012,Naïma ⵏⵄⵉⵎⴰ النعيمة,34.6051162,-2.2179267
Morocco,1965675624,Aïn Attig ⵄⵉⵏ ⵄⵜⵉⵇ عين عتيق,33.8898576,-6.9678655
Morocco,1970448080,Ait Yadine ⴰⵢⵜ ⵢⴰⴷⵉⵏ آيت يادين,33.9704133,-6.0175027
Morocco,1974455108,El Gara ⵍⴳⴰⵕⴰ الكارة‎,33.277113,-7.2331554
Morocco,1974455110,Mellila ⵎⵍⵍⵉⵍⴰ مليلة,33.3894614,-7.1474588
Morocco,1974483910,Lahraouiyine ⵍⵀⵔⴰⵡⵉⵢⵉⵏ الهراويين,33.5425305,-7.5299367
Morocco,1976780855,Oued Heimer ⵡⴰⴷ ⵃⵉⵎⵔ واد الحيمر,34.454161,-1.898747
Morocco,1981619098,Maaziz ⵎⵄⴰⵣⵉⵣ معازيز,33.6680618,-6.3207189
Morocco,1997077182,Sidi Allal Tazi ⵙⵉⴷⵉ ⵄⵍⵍⴰⵍ ⴰⵜⴰⵣⵉ سيدي علال التازي,34.52185,-6.323673
Morocco,1997182059,Lalla Mimouna ⵍⴰⵍⵍⴰ ⵎⵉⵎⵓⵏⴰ لالة ميمونة,34.848871,-6.069173
Morocco,1997764366,Laouamra ⵍⵄⵡⴰⵎⵔⴰ العوامرة,35.067151,-6.088657
Morocco,1999241428,Boukhalef ⴱⵓⵅⴰⵍⴼ بوخالف,35.7337667,-5.8831334
Morocco,1999389626,Had Kourt ⵃⴷⴷ ⴽⵓⵔⵜ حد كرت,34.615129,-5.736023
Morocco,2001846441,Al Machouar Stinia ⵍⵎⵛⵡⵕ ⵙⵜⵜⵉⵏⵢⵢⴰ المشور الستينية,33.8915022,-5.5623057
Morocco,2003014893,Douyet ⴹⵡⵢⴰⵜ الظويات,34.0331706,-5.1025287
Morocco,2009112724,Dkhissa ⴷⵅⵉⵙⴰ الدخيسة,33.9373089,-5.4666399
Morocco,2009112726,Ouislane ⵡⵉⵙⵍⴰⵏ ويسلان,33.9106742,-5.4865526
Morocco,2009279842,Boudnib ⴱⵓⴷⵏⵉⴱ بوذنيب,31.951733,-3.607987
Morocco,2011143320,Bouhouda ⴱⵓⵀⵓⴷⴰ بوهودة,34.5922378,-4.5492371
Morocco,2015877443,Ait Yaazem ⴰⵢⵜ ⵉⵄⵣⵎ آيت يعزم,33.73255,-5.579042
Morocco,2017305245,Ait Boubidmane ⴰⵢⵜ ⴱⵓⴱⵓⴷⵎⴰⵏ آيت بوبيدمان,33.8167388,-5.2749377
Morocco,2020295346,Guigou ⴳⵉⴳⵓ كيكو,33.384529,-4.83332
Morocco,2020311643,Tissaf ⵜⵉⵙⵙⴰⴼ تيساف,33.397648,-3.584048
Morocco,2020436713,Taghazout ⵜⴰⵖⴰⵣⵓⵜ تغازوت,30.544722,-9.709128
Morocco,2021315971,Imouzzer Marmoucha ⵉⵎⵓⵣⵣⴰⵔ ⵎⵕⵎⵓⵛⴰ إموزار مرموشة,33.470015,-4.294914
Morocco,2021315983,Outat El Haj ⵓⵟⴰⵟ ⵍⵃⴰⵊⵊ أوطاط الحاج,33.337366,-3.696438
Morocco,2021378695,Oulad Frej ⵡⵍⴰⴷ ⴼⵕⵊ أولاد فريج,32.954215,-8.219855
Morocco,2037523392,El Kbab ⵍⵇⴱⴰⴱ لقباب,32.741403,-5.52067
Morocco,2037523622,Tighassaline ⵜⵉⵖⵙⵙⴰⵍⵉⵏ تيغسالين,32.7830802,-5.6528302
Morocco,2037523691,Aït Ishaq ⴰⵢⵜ ⵙⵃⴰⵇ آيت إسحاق,32.7630212,-5.7261667
Morocco,2037523702,Sidi Yahya Ou Saad ⵙⵉⴷⵉ ⵉⵃⵢⴰ سيدي يحيى,32.680499,-5.577051
Morocco,2045444474,Ait Aatab ⴰⵢⵜ ⵄⵜⴰⴱ آيت عتاب,32.110457,-6.7104174
Morocco,2050449247,Anmiter ⴰⵏⵎⵉⵜⵔ أنميتر,31.2774298,-7.150466
Morocco,2051885014,Alnif ⴰⵍⵏⵉⴼ النيف,31.116268,-5.16687
Morocco,2061698656,Tabant ⵜⴰⴱⴰⵏⵜ تبانت,31.658726,-6.420065
Morocco,2079959790,Tabounte ⵜⴰⴱⵓⵏⵜ تابونت,30.8964789,-6.9072886
Morocco,2082015773,Zaouiat Cheikh ⵣⴰⵡⵉⵜ ⵛⵉⴽ زاوية الشيخ,32.6441708,-5.916589
Morocco,2082804081,Zag ⵥⴰⴳ الزاگ,28.022026,-9.294609
Morocco,2109610563,N'Kob ⵏⵇⵯⴱ انقوب,30.8686057,-5.8625328
Morocco,2140256611,Foum Jemaa ⴼⵯⵎⵎ ⵊⵎⵄⴰ فم الجمعة,31.9616024,-6.9841396
Morocco,2140256613,Dar Oulad Zidouh ⴷⴰⵕ ⵡⵍⴰⴷ ⵣⵉⴷⵓⵃ دار اولاد زيدوح,32.308718,-6.902587
Morocco,2153902671,Drargua ⴷⵔⴰⵔⴳⴰ الدراركة,30.3820295,-9.4764214
Morocco,2153925278,Lqliaa ⴰⵍⵇⵍⵉⵄⴰ القليعة,30.29865,-9.4620176
Morocco,2157795201,Aït Amira ⴰⵢⵜ ⵄⵎⵉⵔⴰ آيت اعميرة,30.1768183,-9.4891392
Morocco,2158383783,Ait Daoud ⴰⵢⵜ ⴷⴰⵡⴷ أيت داوود,31.0804675,-9.3512648
Morocco,2158441715,Khnichet ⵅⵏⵉⵛⴰⵜ الخنيشات,34.4383085,-5.6844179
Morocco,2161697637,Haouzia ⵃⴰⵡⵣⵉⵢⴰ حوزية,33.3063826,-8.3547988
Morocco,2184710862,Touarga ⵜⵡⴰⵔⴳⴰ توارگة,34.007331,-6.829443
Morocco,2184888141,Méchouar Fès Jdid ⵎⵛⵡⵕ ⴼⴰⵙ ⴰⵎⴰⵢⵏⵓ المشور فاس الجديد,34.0560618,-4.9939696
Morocco,2190493609,Skoura M'Daz ⵙⴽⴽⵓⵔⴰ ⵎⴷⴰⵣ سكورة مداز,33.518893,-4.544113
Morocco,2191422595,El Marsa ⵍⵎⴰⵔⵙⴰ المرسى,27.0929902,-13.4092408
Morocco,2193588460,Oulad M'Barek ⵜⴰⵔⵡⴰ ⵏ ⵎⴱⴰⵔⴽ أولاد امبارك,32.280074,-6.458886
Morocco,2193588464,Had Bradia ⴱⵔⴰⴷⵢⴰ برادية,32.4511487,-6.536479
Morocco,2202485215,El Ksiba ⵍⵇⵚⵉⴱⴰ القصيبة,32.568902,-6.034093
Morocco,2203657142,Laakarta ⵍⵄⴽⴰⵕⵟⴰ العكارطة,32.6721011,-9.0974522
Morocco,2203677000,Had Herrara ⵃⴰⴷ ⵃⵕⴰⵕⴰ حد حرارة,32.4401794,-9.1356752
Morocco,2203744120,Khemis Ouled Elhaj ⵅⵎⵉⵙ ⵡⵍⴰⴷ ⵍⵃⴰⵊⵊ خميس ولاد الحاج,31.9854966,-9.3268605
Morocco,2203749901,Khatazakane ⵅⴰⵟⵟ ⴰⵣⴰⴽⴰⵏ خط أزكان,32.217341,-9.1381371
Morocco,2204441513,Boumia ⴱⵓⵎⵢⵢⴰ بومية,32.725274,-5.101769
Morocco,2206191207,M'hamid ⵎⵃⴰⵎⵉⴷ محاميد,31.5912101,-8.0477137
Morocco,2209218482,Sidi Bou Othmane ⵙⵉⴷⵉ ⴱⵓ ⵄⵜⵎⴰⵏ سيدي بو عثمان,31.901685,-7.941499
Morocco,2519157953,Agadir Bouachiba ⴰⴳⴰⴷⵉⵔ ⴱⵓⵄⵛⵉⴱⴰ أگادير بوعشيبة,31.6942494,-7.2946194
Morocco,2670406317,Tindite ⵜⵉⵏⴷⵉⵜ تينديت,33.6645443,-3.6239184
Morocco,2698765571,Sidi Ali Ben Hamdouche ⵙⵉⴷⵉ ⵄⵍⵉ ⴱⵏ ⵃⵎⴷⵓⵛ سيدي علي بن حمدوش,33.2861897,-8.3263607
Morocco,2816687839,Bni Yakhlef ⴱⵏⵉ ⵉⵅⵍⴼ بني يخلف,33.6852601,-7.3386583
Morocco,2816730545,Mers El Kheir ⵎⵔⵙ ⵍⵅⵉⵔ مرس الخير,33.8624551,-6.9312359
Morocco,2993567294,Oulad Sbah,31.6276636,-8.2603767
Morocco,2993567798,NA,31.6436308,-8.2529953
Morocco,3093692728,Tahla ⵜⴰⵀⵍⴰ تاهلة,34.050634,-4.4224
Morocco,3123495673,Reggada ⵔⴳⴰⴷⴰ الرگادة,29.5422725,-9.6951877
Morocco,3144071313,Missour ⵎⵉⵙⵓⵔ ميسور,33.047057,-3.992578
Morocco,3215639008,Zaouiat Echerradi ⵣⴰⵡⵉⵜ ⵏ ⵛⵕⵕⴰⴷⵉ زاوية اشرادي,31.7137471,-8.3197531
Morocco,3264530447,Douar Msameda ⵉⵖⵕⵎ ⵏ ⵎⵚⴰⵎⴷⴰ دوار المصامدة,34.0752586,-5.5011134
Morocco,3373080164,Sidi Boughanbour ⵙⵉⴷⵉ ⴱⵓⵖⴰⵏⴱⵓⵔ سيدي بوغنبور,32.1193039,-9.1657345
Morocco,3521928579,Demnate ⴷⵎⵏⴰⵜ دمنات,31.732224,-7.002676
Morocco,3552336006,Errahma ⵕⵕⵃⵎⴰ الرحمة,33.5343348,-7.7322843
Morocco,3901504169,Merzouga ⵎⴰⵔⵣⵓⴳⴰ مرزوكة,31.0999166,-4.0140878
Morocco,3978757811,Bouzeroual ⴱⵓⵣⵕⵡⴰⵍ بوزروال,30.4952966,-6.038031
Morocco,3978762317,Toudgha El Oulia ⵜⵓⴷⵖⴰ ⵓⴼⵍⵍⴰ تودغى العليا,31.5459526,-5.5829448
Morocco,4038371493,Dcheira El Jihadia ⴷⵛⴰⵢⵔⴰ ⵍⵊⵉⵀⴰⴷⵉⵢⴰ الدشيرة الجهادية,30.375281,-9.528495
Morocco,4066932572,Cherafate ⵛⵔⴰⴼⴰⵜ الشرافات,35.6529412,-5.6584903
Morocco,4073400910,Amezrou ⴰⵎⵥⵕⵓ أمزرو,30.3078819,-5.8236776
Morocco,4076219803,Ait Bouguemez ⴰⵢⵜ ⴱⵓⴳⵎⵎⴰⵣ,31.6412269,-6.476382
Morocco,4086730013,Al Qsar ⵍⵇⵚⵕ,32.3403498,-6.569883
Morocco,4279382782,Timtig ⵜⵉⵎⵜⵉⴳ تمتيك,30.2829583,-5.7407012
Morocco,4316220985,Boumalne Dadès ⴱⵓⵎⴰⵍⵏ ⴷⴰⴷⵙ بومالن دادس,31.372661,-5.986644
Morocco,4316241550,Kalaat M'Gouna ⵜⵉⵖⵔⵎⵜ ⵏ ⵉⵎⴳⵓⵏⵏ قلعة مغونة,31.237704,-6.129345
Morocco,4376785290,Gamna ⴳⴰⵎⵏⴰ كامنا,34.5410761,-5.8562735
Morocco,5559110153,Victoria ⴼⵉⵛⵜⵓⵔⵉⴰ فكتوريا,33.4181692,-7.6726284
Tunisia,262722264,مطماطة,33.5455727,9.9679469
Tunisia,264881676,دوز,33.4571574,9.0235934
Tunisia,264885332,تطاوين,32.929216,10.451229
Tunisia,283645091,حلق الوادي,36.817565,10.306839
Tunisia,286091511,رادس,36.774402,10.276969
Tunisia,286354073,فوشانة‎,36.6987162,10.1693727
Tunisia,287534172,نابل,36.453801,10.737238
Tunisia,287545859,قفصة,34.425149,8.786218
Tunisia,287547219,المرسى,36.8792852,10.3295168
Tunisia,287547703,القصرين‎,35.1691517,8.8364635
Tunisia,287558790,جرجيس,33.5016452,11.1131197
Tunisia,287558953,باردو,36.8139969,10.1363018
Tunisia,287559510,حومة السوق,33.875676,10.858684
Tunisia,287583296,الحمامات,36.398068,10.618929
Tunisia,287585326,مدنين,33.339592,10.491185
Tunisia,287588734,بن قردان,33.1388239,11.2173699
Tunisia,287590041,باجة,36.7270373,9.1814915
Tunisia,287612727,مساكن,35.7330411,10.5751923
Tunisia,287613682,ميدون,33.8073974,10.9905489
Tunisia,287615073,مكنين,35.631675,10.9003337
Tunisia,287618126,منزل بورقيبة,37.150184,9.783638
Tunisia,287619187,وادي الليل,36.8387227,10.0404219
Tunisia,287620228,القلعة الكبرى,35.8702804,10.5379015
Tunisia,287622372,الكاف,36.1675068,8.7043493
Tunisia,287625095,جندوبة,36.5013895,8.7811635
Tunisia,287625642,قليبية,36.844354,11.098249
Tunisia,297764755,أجيم,33.7261842,10.7512035
Tunisia,298018764,نفطة,33.8763378,7.8766101
Tunisia,298018887,توزر,33.920364,8.13384
Tunisia,298019989,قبلي,33.7058066,8.9705891
Tunisia,298020344,الحامة,33.8813802,9.7965836
Tunisia,299240195,الجم,35.295834,10.707649
Tunisia,299265771,مجاز الباب,36.6465454,9.6146711
Tunisia,299272084,غار الدماء‎,36.4469714,8.439679
Tunisia,299277153,ماطر,37.0384593,9.6674325
Tunisia,312490313,حمام الزريبة,36.3511123,10.2073065
Tunisia,351575544,سوق الأحد,33.7784743,8.8507966
Tunisia,351582010,دقاش,33.9837331,8.2157997
Tunisia,352839775,مارث,33.6167594,10.2879208
Tunisia,411893392,بئر الباي,36.710343,10.3741713
Tunisia,437592157,سبيطلة,35.23072,9.1269629
Tunisia,443149018,عقارب,34.7424054,10.5274692
Tunisia,443149064,المحرس,34.526723,10.496545
Tunisia,443160013,بئر علي بن خليفة,34.7406974,10.0943907
Tunisia,443160117,الشابة,35.2361849,11.1132403
Tunisia,462003374,ساقية سيدي يوسف,36.2254404,8.3552514
Tunisia,469845572,رأس الجبل,37.2144672,10.1246134
Tunisia,501803032,قلعة سنان,35.7664063,8.3440105
Tunisia,558962262,قصور الساف,35.417031,10.9948798
Tunisia,561134924,سيدي بوزيد,35.036117,9.484041
Tunisia,674390308,رجيم معتوق,33.316896,8.0307481
Tunisia,674434208,القلعة الخصبة,35.6581402,8.587925
Tunisia,675058710,الطويرف,36.3394059,8.5804766
Tunisia,675145102,سيدي منصور,34.2593801,9.5561511
Tunisia,694068983,المتلوي,34.3177059,8.3998283
Tunisia,1088455110,مكثر,35.8571565,9.2014433
Tunisia,1104122473,الرديف,34.3875033,8.1571004
Tunisia,1124134746,قرمبالية,36.5995808,10.4991324
Tunisia,1128016495,الصمعة,36.5423181,10.7817435
Tunisia,1128018620,بني خيار,36.4677524,10.7817303
Tunisia,1136725873,الكرم,36.8348312,10.3181518
Tunisia,1136727177,العوينة,36.852609,10.2659363
Tunisia,1157744669,مرناق,36.6818188,10.2902721
Tunisia,1187470251,تالة,35.5733473,8.6732599
Tunisia,1187534930,سيدي عمر بوحجلة,35.3973674,10.0480959
Tunisia,1187534934,سيدي سعد,35.3877116,9.7615931
Tunisia,1187534946,حفوز,35.6328053,9.6757624
Tunisia,1204588103,الزهراء,36.7433213,10.304843
Tunisia,1206559008,الساحلين,35.751204,10.711661
Tunisia,1212253275,قصر هلال,35.6443501,10.8891587
Tunisia,1216174459,زغوان,36.3972891,10.1462302
Tunisia,1259516109,قلالة,33.7288137,10.8558107
Tunisia,1277956973,الفحص,36.3753066,9.9115653
Tunisia,1278361178,الذهيبة,32.0097291,10.700986
Tunisia,1278361348,رمادة,32.3153893,10.3962005
Tunisia,1435708256,طبربة,36.8324189,9.8418371
Tunisia,1439531928,النفيضة,36.1347876,10.3772831
Tunisia,1561079549,وذرف,33.9838849,9.9689369
Tunisia,1655884872,غمراسن,33.0598991,10.3390575
Tunisia,1831965889,باب العسل,36.8120095,10.1690687
Tunisia,1837034352,بوسالم,36.6079377,8.9713004
Tunisia,1839362661,العالية,37.1691357,10.0349865
Tunisia,1851671410,دار شعبان الفهري,36.4668014,10.748038
Tunisia,1896502664,فريانة,34.9445963,8.5644197
Tunisia,1899219943,الجريصة,35.8433615,8.6317579
Tunisia,1899226322,تاجروين,35.8910231,8.5533862
Tunisia,1997334607,تونين,33.5104123,10.1423807
Tunisia,2020536002,الدهماني,35.9453012,8.8303186
Tunisia,2043739836,طبرقة‎,36.954975,8.758196
Tunisia,2063816292,حمام الشط,36.7189536,10.3642733
Tunisia,2165194615,أم العرائس,34.485562,8.2709628
Tunisia,2175125786,ماجل بلعباس,34.7516713,8.5205879
Tunisia,2177279829,المضيلة‎,34.2913836,8.7515115
Tunisia,2177334841,القطار,34.3364077,8.951796
Tunisia,2178146164,السند,34.541323,9.2544668
Tunisia,2187459836,قربة,36.5735526,10.8564992
Tunisia,2202008629,بوشمة,33.9043186,10.0616427
Tunisia,2203045897,غنوش,33.9399579,10.0659441
Tunisia,2402352381,رجيش,35.46661,11.0406233
Tunisia,2988370656,المحمدية,36.6740203,10.1552994
Tunisia,2988385577,منوبة,36.807605,10.104957
Tunisia,3013469458,قلعة الأندلس,37.0626032,10.1178736
Tunisia,3066918834,سليانة,36.085041,9.369468
Tunisia,3145829326,سيدي حسين,36.7708432,10.1102505
Tunisia,3430536430,نبر,36.3013409,8.7705816
Tunisia,3668370508,البطان,36.8042282,9.8444664
Tunisia,3823151839,Ellouza,35.0289322,11.000684
Tunisia,4099579144,زهرة مدين,36.7686376,9.0894667
Tunisia,4394953973,حمام الأتف,36.7317797,10.3362386
Tunisia,4633446424,تازركة,36.5459485,10.8367266
Tunisia,5067512322,بئر الحفي,34.9297364,9.1945452
Tunisia,5826137835,سيدي الظريف,36.8810026,10.3356799
Tunisia,5974000209,ملولش,35.1664523,11.0351148
Tunisia,5981914543,جبنيانة,35.0344109,10.9082383
Tunisia,5982965571,‫حزق‬,35.0292057,10.9615767
Tunisia,6039044550,منزل تميم,36.7807309,10.9867009
Tunisia,6039086407,منزل جميل,37.2333011,9.9133748
Tunisia,6178330200,El Rogba,32.908583,10.4144622
Western Sahara,469179926,الكويرة,20.833322,-17.089121
Western Sahara,1623947997,Aousserd ⴰⵡⵙⴰⵔⴷ أوسرد,22.567,-14.312906
Western Sahara,1929403710,Tichla ⵜⵉⵛⵍⴰ تشلا,21.6347955,-14.8938895
Western Sahara,2191422595,El Marsa ⵍⵎⴰⵔⵙⴰ المرسى,27.0929902,-13.4092408
Western Sahara,2420942708,تفاريتي,26.159504,-10.558991
Burundi,298699084,Bugarama,-3.2908848,29.5463026
Burundi,498658946,Nyanza Lac,-4.3384765,29.6046835
Burundi,498680748,Matongo,-3.0683489,29.6106269
Burundi,753166904,Rutovu,-3.8809964,29.8473191
Burundi,801770794,Gatumba,-3.3348819,29.2529634
Burundi,1343329007,Matana,-3.7670139,29.6894104
Burundi,1343430505,Mugamba,-3.6650055,29.5865785
Burundi,1343503231,Ryansoro,-3.7179535,29.8213433
Burundi,1343503236,Gishubi,-3.622669,29.8598229
Burundi,1343503237,Butaganzwa,-3.5684064,30.1380223
Burundi,1344518060,Kinyinya,-3.6574594,30.3430215
Burundi,1344526636,Gitanga,-3.9823505,29.9176114
Burundi,1344545312,Mabanda,-4.2761692,29.7738344
Burundi,1345822568,Gisuru,-3.4577812,30.501947
Burundi,1345841603,Makebuko,-3.6021759,30.0001086
Burundi,1345841605,Bweru,-3.3228043,30.4706582
Burundi,1345841608,Cendajuru,-3.2867171,30.6020471
Burundi,1345856442,Gisagara,-3.2038707,30.693143
Burundi,1345888968,Gihanga,-3.1952943,29.3049199
Burundi,1345888970,Mpanda,-3.1692813,29.404712
Burundi,1347111344,Rutegama,-3.3038504,29.7491068
Burundi,1347117125,Kigamba,-3.067389,30.541011
Burundi,1347127243,Buhiga,-3.0249219,30.1684426
Burundi,1347127253,Gitaramuka,-2.9810861,30.172727
Burundi,1347127255,Shombo,-3.278474,30.0505041
Burundi,1347134534,Mutaho,-3.1436745,29.8664414
Burundi,1347134535,Bugendana,-3.2329786,29.9140423
Burundi,1347139981,Gasorwe,-2.8541302,30.2202793
Burundi,1347150636,Ruhehe,-2.4366397,30.0329836
Burundi,1347153562,Bugenyuzi,-3.0940413,30.0640333
Burundi,1347160918,Muruta,-2.927854,29.5933819
Burundi,1347179719,Musigati,-3.0673117,29.4595269
Burundi,1347208022,Bukinanyana,-2.88251,29.3367361
Burundi,1347215842,Bukeye,-3.193627,29.6368213
Burundi,1347556383,Rugombo,-2.8130179,29.0821647
Burundi,1347557540,Buganda,-2.9745637,29.2015878
Burundi,1673541099,Kabezi,-3.5350428,29.3452069
Burundi,1691655515,Gihofi,-4.0265749,30.1409204
Burundi,1719077415,Gashikanwa,-2.908062,29.8987257
Burundi,1719077742,Vumbi,-2.69772,30.104284
Burundi,1719117213,Gashoho,-2.8206623,30.1382456
Burundi,2306943166,Butihinda,-2.7164356,30.3190681
Burundi,2306992955,Musenyi,-2.956242,30.0319647
Burundi,2311944884,Bukemba,-4.0066838,30.0624289
Burundi,2311944888,Muzye,-3.9854111,30.1314127
Burundi,2311958006,Kayogoro,-4.1180586,29.9464678
Burundi,2334712994,Mukungu,-4.2199474,29.5485893
Burundi,3025119533,Butezi,-3.3936912,30.1549329
Burundi,3039360935,Ntega,-2.6079734,29.9937823
Burundi,3039412282,Marangara,-2.7423205,29.9941415
Burundi,3041548506,Bwambarangwe,-2.5831216,30.3344506
Burundi,3041822064,Kiganda,-3.3450344,29.6874773
Burundi,3042132220,Rusaka,-3.4400797,29.6318714
Burundi,3042329598,Mabayi,-2.7155058,29.2444205
Burundi,3042404944,Rugazi,-3.2429277,29.4092119
Burundi,3045481313,Kiremba,-2.8194829,29.9818536
Burundi,3045973159,Gatara,-2.9838681,29.649148
Burundi,3045981313,Muhanga,-3.0282198,29.8327246
Burundi,3045981316,Mutumba,-3.197055,30.2257584
Burundi,3045981317,Nyabikere,-3.2653493,30.111956
Burundi,3046155937,Mwakiro,-3.1305665,30.2909031
Burundi,3053293969,Giharo,-3.7804548,30.235219
Burundi,3057708440,Nyabitsinda,-3.5386726,30.2742314
Burundi,3069894162,Mpinga-Kayove,-3.7967006,30.155538
Burundi,3084743284,Giteranyi,-2.5172828,30.458614
Burundi,3086165615,Busiga,-2.8499131,29.7447406
Burundi,3086305337,Mubimbi,-3.2831715,29.4963892
Burundi,3093178884,Gitobe,-2.6483606,30.2012236
Burundi,3093181706,Busoni,-2.5261969,30.2170754
Burundi,3095251338,Gihogazi,-3.1222513,30.0034319
Burundi,3095265320,Musongati,-3.727403,30.0929812
Burundi,3095278576,Buyengero,-3.814518,29.5426521
Burundi,3095290909,Burambi,-3.8019451,29.4389912
Burundi,3095304258,Vyanda,-4.1036407,29.605883
Burundi,3095310408,Kayogoro,-4.2295096,29.7643737
Burundi,3095314791,Kibago,-4.271595,29.8498152
Burundi,3095320074,Vugizo,-4.1718112,29.7065163
Burundi,3122576225,Bukirasazi,-3.7019888,29.9634235
Burundi,3124328647,Buterere,-3.3321108,29.3445441
Burundi,3124336020,Isare,-3.3460676,29.4835157
Burundi,3124338236,Mugongomanga,-3.4683869,29.5451163
Burundi,3124351985,Muhuta,-3.5703591,29.440946
Burundi,3124384462,Mutambu,-3.5291607,29.4281056
Burundi,3124405085,Mutimbuzi,-3.2902972,29.3273466
Burundi,3124413076,Nyabiraba,-3.4546617,29.4605718
Burundi,3126608981,Buraza,-3.7479686,29.9038161
Burundi,3126633143,Itaba,-3.6164221,30.0273561
Burundi,3126650819,Nyarusange,-3.5780656,29.8092456
Burundi,3126675629,Giheta,-3.36418,29.8587765
Burundi,3128461993,Nyabihanga,-3.4693654,29.8081085
Burundi,3128469828,Kayokwe,-3.5290499,29.7398789
Burundi,3128476142,Gisozi,-3.5659737,29.6825013
Burundi,3128484088,Ndava,-3.3784455,29.7800542
Burundi,3128490867,Mbuye,-3.2300792,29.7210705
Burundi,3128497355,Buhinyuza,-3.0260354,30.3623737
Burundi,3128522480,Murwi,-2.8868824,29.2039174
Burundi,3128524661,Mwumba,-2.8587912,29.7907586
Burundi,3128526786,Nyamurenza,-2.8245799,29.8651358
Burundi,3128532351,Tangara,-2.9221912,29.974491
Burundi,3130314368,Bugabira,-2.5310466,30.0717683
Burundi,3312209071,Bisoro,-3.636156,29.7077404
Burundi,3358017799,Mishiha,-3.0650462,30.6695073
Burundi,3376660147,Gahombo,-2.9705461,29.7335277
Burundi,3629618784,Kabarore,-2.8496498,29.5408228
Burundi,4023809919,Ruhororo,-3.0518553,29.8857336
Burundi,5667406128,Buhoro,-3.5196865,30.0499035
Burundi,5669814923,Kanyosha,-3.4310606,29.3528813
Burundi,5669814924,Mukike,-3.5732709,29.5161936
Burundi,5669854831,Songa,-3.8631659,29.7209204
Burundi,5795676837,Mukike,-3.5219055,29.5134943
Burundi,5807371292,Mugina,-2.7526118,29.1089772
Burundi,5810156164,Butaganzwa,-3.0839255,29.7286111
Burundi,5810156165,Rango,-3.1186527,29.7568568
Burundi,5810460939,Muha,-3.4257877,29.3541148
Burundi,5810460940,Mkaza,-3.3866652,29.3595508
Burundi,5810460941,Ntahangwa,-3.3590416,29.3656716
Burundi,5810510607,Bugarama,-3.7226561,29.3155122
Comoros,1229049286,Ouani أواني,-12.1339888,44.4272275
Comoros,1229049495,Jimilime جيميليم,-12.0973976,44.4630155
Comoros,1229049545,Hajoho هاجهو,-12.1243932,44.4887603
Comoros,1229049872,Bazimini بازيميني,-12.1804726,44.4493718
Comoros,1229050356,Bambao بامبو,-12.2022861,44.5166595
Comoros,1229050437,Harembo هارمبو,-12.1509075,44.4977311
Comoros,1229050458,دوموني Domoni,-12.2586544,44.528851
Comoros,2317281173,Akibani أكيباني,-12.1961321,44.3474195
Comoros,2317281174,سيما Sima,-12.1981154,44.2732653
Comoros,2317482076,جويزي Djoiezi,-12.3025278,43.7719476
Comoros,2317482080,دوموني Domoni,-12.2580229,43.6431446
Comoros,2317482083,فومبوني Fomboni,-12.2841005,43.7416863
Comoros,2317482086,هواني Hoani,-12.2583648,43.675036
Comoros,2317482090,ميرينكوني Miringoni,-12.3022872,43.6366052
Comoros,2317482092,نيومشوا Nioumachoua,-12.364451,43.7178957
Comoros,2317482095,والله Ouallah,-12.327085,43.6625136
Comoros,2317482098,ندروندروني Ndrondroni,-12.3476358,43.6781855
Comoros,2317587042,Hahaia هاهايا,-11.5644457,43.2713158
Comoros,2318289090,Chandra شاندرا,-12.1998655,44.4641536
Comoros,2995360506,Pomoni بوموني,-12.2836247,44.4101223
Comoros,4052722395,Foumbouni فومبوني,-11.865448,43.4951635
Djibouti,316805035,Ali Sabieh علي صبيح,11.1560462,42.7045067
Djibouti,316808022,Tadjoura تجرة,11.7851745,42.8846919
Djibouti,316808512,راندا Randa,11.848328,42.657682
Djibouti,316809239,Dikhil دخيل,11.1071149,42.3687433
Djibouti,316829724,يوبوكي Yoboki,11.5081383,42.1037241
Djibouti,316835311,Dorra درة,12.149049,42.476494
Djibouti,316837942,بالهو Balho,12.059821,42.193992
Djibouti,316841441,Obock أبخ,11.9640149,43.292228
Djibouti,832040672,Ali Addé علي عدي,11.1310403,42.8913154
Djibouti,832062911,Holl-Holl هلهول,11.3095718,42.927777
Djibouti,3605170673,Balbala بلبالا,11.556014,43.112817
Eritrea,288517213,ምጽዋ مصوع Massawa,15.604286,39.4651496
Eritrea,312691689,مندفرا መንደፈራ Mendefera,14.884126,38.81331
Eritrea,312821690,Gahtelay قهتيلي,15.5249264,39.1495165
Eritrea,313795917,تسني Teseney,15.109466,36.660338
Eritrea,313799319,أم هاجر Umm Hajar,14.3228349,36.6527265
Eritrea,315105529,Ghinda جندع,15.4453151,39.0907406
Eritrea,317148383,بارنتو ባረንቱ Barentu,15.1112679,37.5903171
Eritrea,317151407,Golij غلج,14.7408216,36.7222612
Eritrea,321209318,ኣቆርዳት أغوردات Agordat,15.5499995,37.8863302
Eritrea,321210711,تسازيغا Tsazega,15.3512912,38.8007376
Eritrea,321210744,NA,15.3601044,38.8318252
Eritrea,321211793,عدي تيكلزان Adi Tekelezan,15.567353,38.778458
Eritrea,321218257,شامبيكو Shambiko,14.9182528,37.8355578
Eritrea,321221554,NA,15.0684839,39.7334233
Eritrea,321223133,صنعفي ሰንዓፈ Senafe,14.701755,39.424382
Eritrea,321224645,أد رفي Ad Refai,14.5465777,39.3913745
Eritrea,321258615,عدي كوالا Adi Kwala,14.633798,38.833557
Eritrea,321259668,NA,14.8676975,38.8496937
Eritrea,321262577,عدي قيح ዓዲ ቀይሕ Adi Keyh,14.847566,39.372487
Eritrea,321265083,Tiyo طيعوا,14.688479,40.9594327
Eritrea,354475940,Tzada Christian تزادا المسيحي,15.3316017,38.8495062
Eritrea,1950935923,سخناتي Segeneiti,15.053142,39.189117
Eritrea,2050342291,ناكفا ናቕፋ Nakfa,16.665585,38.476843
Eritrea,2050650183,الجين Algena,17.3826198,38.5486458
Eritrea,2304527878,Badme بادمة,14.726079,37.804595
Eritrea,2304600108,Unknown Town / مدينة غير معروف,14.6533969,37.5722676
Eritrea,2304600111,توكمبي Tocombia,14.7847234,37.4716562
Eritrea,2330208432,تسيرونا Tserona,14.6245525,39.1969904
Eritrea,2828477178,إمبا درهو Emba Derho,15.4322012,38.8963241
Eritrea,3858638211,ኣፍዓበት أفعبت Af'Abet,16.1888841,38.6890592
Eritrea,4230919498,جورنا Jurna,14.9514922,37.9162958
Eritrea,4266181303,زولا Zula,15.245677,39.670627
Eritrea,4266181449,فورو Foro,15.263033,39.622385
Eritrea,4266676795,دقمحري Dekemhare,15.0683207,39.0481692
Eritrea,4303551374,دباروا Debarwa,15.0899869,38.8341185
Eritrea,4311111471,حقاز Hagaz,15.703189,38.271432
Eritrea,4449365186,خلب Gheleb,15.8329846,38.7542432
Eritrea,4527256046,ددا Dedda,15.3147313,37.6467846
Ethiopia,44927166,Moyale,3.5241898,39.0512683
Ethiopia,71464974,Lalibela,12.035561,39.046203
Ethiopia,71558889,Azezo,12.5491718,37.4269867
Ethiopia,237497443,ሞጆ / Mojo,8.5869874,39.125
Ethiopia,237524640,ይርጋለም / Yirgalem,6.746936,38.405763
Ethiopia,271395042,Tis Abay,11.4863225,37.5841296
Ethiopia,283675670,Waliso,8.5388595,37.9761854
Ethiopia,283675671,ወልቂጤ / Welkite,8.286087,37.781844
Ethiopia,283675678,ሰኮሩ / Sokoru,7.9256841,37.4179084
Ethiopia,283675703,Shebe,7.5031232,36.5112816
Ethiopia,283675711,Bonga,7.26498,36.24756
Ethiopia,283675716,Bendi,7.0711782,35.6442129
Ethiopia,283675719,Tepi,7.197913,35.422434
Ethiopia,283675722,Mizan Teferi,6.992134,35.576509
Ethiopia,283675736,Seka,7.6027854,36.7239357
Ethiopia,283675743,Tulu Bolo,8.661029,38.214006
Ethiopia,291079798,Bishoftu,8.750004,38.981734
Ethiopia,294749162,ቡሌ ሆራ / Bule Hora,5.6399545,38.2393711
Ethiopia,306617422,El Ley,3.7709417,39.2270676
Ethiopia,316840175,Dedai,11.9140285,41.573542
Ethiopia,316855944,መልካ ጀብዱ / Melka Jebdu,9.6183299,41.7836494
Ethiopia,316861042,NA,8.4540959,39.2175166
Ethiopia,316861061,NA,8.3959522,39.2162066
Ethiopia,316861082,Melkasa,8.4048519,39.3364779
Ethiopia,316862293,NA,8.2412832,39.3299548
Ethiopia,316862499,Arbe Gebeya,8.148683,39.3534724
Ethiopia,316862544,NA,8.1653357,39.3433444
Ethiopia,316862572,NA,8.1981291,39.345576
Ethiopia,316862828,NA,8.2098525,39.3275515
Ethiopia,316863118,Bole,8.6503175,39.7541373
Ethiopia,316863864,አዋሽ / Awash,8.992496,40.167674
Ethiopia,316865580,Haro Adi,8.8690203,39.9172083
Ethiopia,316868552,ሚኤሶ / Mieso,9.233068,40.75485
Ethiopia,316868800,Chiro,9.0870642,40.8675244
Ethiopia,316869349,Hirna,9.217435,41.101796
Ethiopia,316869699,Deder,9.312287,41.442772
Ethiopia,316869863,Chelenko,9.3966258,41.560351
Ethiopia,316871083,NA,9.5060137,42.6088587
Ethiopia,316873871,Togechane,9.5976698,43.3306401
Ethiopia,318126326,Ziway,7.9285539,38.7191161
Ethiopia,319194322,NA,9.1279181,40.1696907
Ethiopia,319196164,Shoa Robit,9.9937611,39.900869
Ethiopia,319203456,Welenchede,8.6632513,39.4343168
Ethiopia,319207061,Alaba Qulito,7.3105446,38.088051
Ethiopia,319212763,Kibet,8.0265247,38.3300949
Ethiopia,319212794,Butajira,8.120617,38.37771
Ethiopia,319311022,ዱራሜ / Durame,7.2438769,37.9049922
Ethiopia,319311852,Tebla,6.7084469,37.7716251
Ethiopia,321226659,Zalambessa ዛላአንበሳ,14.5253558,39.386912
Ethiopia,321245911,NA,13.5688063,36.9710785
Ethiopia,321246336,NA,13.6397154,36.8128078
Ethiopia,321246382,NA,13.6375468,36.8409602
Ethiopia,321246986,NA,13.9077332,37.1348688
Ethiopia,321247208,Humera,14.287666,36.6086269
Ethiopia,321251656,Shire,14.102432,38.282521
Ethiopia,321361857,Adis Zemen,12.1252879,37.7775173
Ethiopia,321378115,Metu,8.3012342,35.5810125
Ethiopia,321734646,Gish Abay,10.980216,37.210039
Ethiopia,321742798,Asaita,11.5653325,41.4385892
Ethiopia,323347866,Lasarat,10.665119,42.454732
Ethiopia,323350710,Ayesha,10.7537608,42.5702989
Ethiopia,323363796,Dewele,11.032907,42.631878
Ethiopia,323760112,Adagalla,10.4264078,42.2388283
Ethiopia,458742370,NA,6.749548,40.1722792
Ethiopia,458746783,Agarfa,7.268909,39.8227789
Ethiopia,458778791,Habe,7.8223116,39.7863892
Ethiopia,458779112,Moje,8.2827557,39.8523071
Ethiopia,458784179,Delosebro,7.2562027,40.4681257
Ethiopia,458784180,NA,7.2255767,40.4148601
Ethiopia,458785299,ሼክ ሁሴን,7.7455692,40.7047013
Ethiopia,458786627,Adele,7.7928999,39.9043339
Ethiopia,458857903,NA,6.4046053,39.6989189
Ethiopia,471337415,Agula,13.695106,39.585644
Ethiopia,471337507,Wukro,13.786854,39.602968
Ethiopia,503991134,NA,13.3100279,39.328831
Ethiopia,504315958,Tocha,7.0884046,37.0409189
Ethiopia,511984995,Sekota,12.625697,39.035441
Ethiopia,513049745,Samre,13.1881788,39.2090691
Ethiopia,514110193,Frewayni,14.054186,39.577254
Ethiopia,514110340,NA,14.1859674,39.5634336
Ethiopia,540265111,Jinka,5.7859931,36.5651822
Ethiopia,544539020,Sodere,8.403503,39.391555
Ethiopia,559957159,Sele,13.538609,39.0403595
Ethiopia,559957954,Hagere Selam,13.6497295,39.1728696
Ethiopia,560383279,Abiy Addi,13.622985,38.999479
Ethiopia,580388531,Siero,14.3206286,39.2250652
Ethiopia,580388694,Bizet,14.2828014,39.2911345
Ethiopia,580396445,Hawzien,13.9797481,39.4308798
Ethiopia,582633508,Adi Arkay,13.4478657,38.060751
Ethiopia,595138666,ገብረ ጉራች,9.803859,38.424103
Ethiopia,595139341,ጫንጮ,9.3038762,38.7513994
Ethiopia,595139394,ዱበር,9.462272,38.880466
Ethiopia,595139687,ሙከጡሪ,9.5537046,38.8704292
Ethiopia,595139881,አማኑኤል / Amanuel,10.4392163,37.5666575
Ethiopia,595140133,ፍኖተ ሰላም / Fenote Selam,10.6800221,37.2601268
Ethiopia,595140313,Burie,10.7170965,37.0623651
Ethiopia,595140559,Addis Kidan,11.075043,36.8893219
Ethiopia,595140591,Enjebara,10.95855,36.934574
Ethiopia,595140927,ደምበጫ / Demebecha,10.5664466,37.4886224
Ethiopia,595141251,ፍልቅልቅ,10.050699,38.24861
Ethiopia,595141529,Dejen,10.164088,38.15003
Ethiopia,595141664,Dangla,11.2569313,36.8498416
Ethiopia,595142160,Meshenti,11.4739033,37.287017
Ethiopia,595142326,Wereta,11.923671,37.696427
Ethiopia,614239700,Dimeka,5.1743074,36.5489973
Ethiopia,653289402,Metahara,8.9025093,39.9181396
Ethiopia,706501532,Quiha,13.4743456,39.5381738
Ethiopia,706520810,Maychew,12.784195,39.540393
Ethiopia,706610025,Goro,6.991394,40.479935
Ethiopia,706610125,ኦማር ሶፍ,6.902225,40.8444539
Ethiopia,706617871,ዲንሾ / Dinsho,7.108213,39.780153
Ethiopia,978223126,Negash,13.884505,39.597173
Ethiopia,1069556217,ሱሉልታ,9.1812561,38.7593782
Ethiopia,1083042084,Debre Libanos,9.7295697,38.8167682
Ethiopia,1104290065,Mega,4.0588,38.32089
Ethiopia,1104331823,Welabu,5.91318,39.63612
Ethiopia,1104342805,አሰንዳቦ / Asendabo,7.7603087,37.2280724
Ethiopia,1104349782,Gurura,8.4394733,37.9236879
Ethiopia,1104351850,Teji,8.8390369,38.3796431
Ethiopia,1104382516,አዳባ / Adaba,7.0056106,39.3939437
Ethiopia,1104431450,Bedele,8.455645,36.352545
Ethiopia,1110107813,Mota,11.081414,37.880986
Ethiopia,1136238315,Deneba,9.7619834,39.1924826
Ethiopia,1136248918,Gosh Bado,9.7302548,39.4569338
Ethiopia,1136376878,Jihur,10.0208014,39.2501575
Ethiopia,1136376907,Enwari,9.8927679,39.1486573
Ethiopia,1149030656,ሾኔ / Shone,7.1442126,37.9555807
Ethiopia,1150494436,Alamata,12.415682,39.558081
Ethiopia,1150570832,Debre Tabor,11.856591,38.008309
Ethiopia,1150588806,Shehibi,12.7805409,36.4053504
Ethiopia,1150589403,Metema መተማ,12.9576,36.15266
Ethiopia,1150626042,Jara,7.3679396,40.498317
Ethiopia,1150880673,Degem Hambiso,9.8135619,38.6328601
Ethiopia,1150880962,መልካ አዋሽና / Melka Awash,8.7070737,38.611621
Ethiopia,1150881654,Bofa Town,8.46667,39.45
Ethiopia,1150882019,Dolo,4.17861,42.05889
Ethiopia,1150882070,Hudat,4.7572654,39.2368373
Ethiopia,1150882283,Kurfa Chele,9.2376494,41.8247376
Ethiopia,1150882390,Jere,9.2167081,37.0678879
Ethiopia,1150882539,Bure,8.286291,35.0992021
Ethiopia,1150882544,Hinna,6.4662944,42.1752739
Ethiopia,1150882593,Dugda,8.1668438,38.6407146
Ethiopia,1150882679,Nedjo,9.5046429,35.501912
Ethiopia,1150882681,መራሮ / Meraro,7.4083246,39.2416379
Ethiopia,1150883100,Debeso,8.850172,35.652436
Ethiopia,1150883265,ዶዶላ / Dodolla,6.9789417,39.18333
Ethiopia,1150883465,Kulubi,9.42694,41.68305
Ethiopia,1150884371,Enseno,8.0599516,38.4804294
Ethiopia,1150884817,Ali,7.2433353,39.9305351
Ethiopia,1150884938,Shukute,9.3808149,38.0253335
Ethiopia,1150885057,Goba,7.0073251,39.9694204
Ethiopia,1150886385,Negele,5.3328174,39.5806628
Ethiopia,1150886397,Inango,9.1677786,35.6828309
Ethiopia,1150886862,መናገሻ / Menagesha,9.0543794,38.5707238
Ethiopia,1150886905,Abala,13.35531,39.75478
Ethiopia,1150887002,Shilabo,6.094304,44.768828
Ethiopia,1150887025,Tulu Milki,9.9081022,38.3469852
Ethiopia,1150887117,Tobba,8.0030009,36.4926701
Ethiopia,1150887227,Koshe,8.0132986,38.5320734
Ethiopia,1150887270,InchIni,9.3146065,38.3802015
Ethiopia,1150887335,Mustakhil',5.2454561,44.7318375
Ethiopia,1150887371,Kela,7.7326889,39.572246
Ethiopia,1150887404,ኤልያስ / Elias,10.2998628,37.4619279
Ethiopia,1150887888,Alemtena,8.2974124,38.9482503
Ethiopia,1150887901,Kersa,7.53333,38.98333
Ethiopia,1150887937,Aleltu,8.465268,38.2538756
Ethiopia,1150888218,Gobesa,7.6211,39.494949
Ethiopia,1150888228,ደብረ ገላን / Debre Gelan,8.83333,38.83333
Ethiopia,1150888843,Arboye,8.3823834,39.6851958
Ethiopia,1150889303,Boke Tiko,8.7265876,40.6434699
Ethiopia,1150889653,Bore,6.36667,38.61667
Ethiopia,1150889979,Micheta,8.5727564,40.3173456
Ethiopia,1150890024,ሆለታ / Holeta,9.0652471,38.4936764
Ethiopia,1150890522,Alamaya,9.39472,42.01306
Ethiopia,1150891336,Dera,8.3309499,39.3180527
Ethiopia,1150891390,Bale,7.7308591,39.9998827
Ethiopia,1150891894,Gulisso,9.1638025,35.4724666
Ethiopia,1150892179,Mengie,10.3845875,34.7655681
Ethiopia,1150892572,አርሲ ነገሌ / Arsi Negelle,7.3539553,38.6786789
Ethiopia,1150893546,Dire,9.182287,38.9235706
Ethiopia,1150893692,Seru,7.675615,40.201359
Ethiopia,1150893724,Harbu,10.9234964,39.7850037
Ethiopia,1150894515,Boreda,9.3336959,41.2901403
Ethiopia,1150894922,Shambu,9.566466,37.100363
Ethiopia,1150897770,Hadero,7.1964404,37.6639481
Ethiopia,1150898015,Sheno,9.316084,38.2722313
Ethiopia,1150898063,ዲማ / Dima,8.8992549,38.587963
Ethiopia,1150898120,Chefedonsa,8.9699638,39.1249055
Ethiopia,1150898179,Sinkille,8.1379694,39.9007971
Ethiopia,1150898266,Bike,9.5309239,41.1973586
Ethiopia,1150898621,Denan,6.5091407,43.4937138
Ethiopia,1150898693,Dilela,8.6400784,38.0511296
Ethiopia,1150898723,Ginsi,9.0306932,38.1481402
Ethiopia,1150899111,Bedeno,9.113093,41.6342783
Ethiopia,1150899199,ኩየራ / Kuyera,7.2786311,38.6522661
Ethiopia,1150899366,Dambidollo,8.53333,34.8
Ethiopia,1150899536,Mendi,9.8,35.1
Ethiopia,1150901642,WachIle,4.5451005,39.0611862
Ethiopia,1150901661,Mesela,9.0799769,41.1738637
Ethiopia,1150902894,እንዳባጉና/Inda Aba Guna,13.94944,38.18416
Ethiopia,1150903208,አፍደም / Āfdem,9.463426,40.997173
Ethiopia,1150906857,Bolo,8.2444288,39.5804793
Ethiopia,1150908158,Bila,9.3692902,35.5985948
Ethiopia,1150908646,Gedo,9.0119173,37.4507629
Ethiopia,1150909572,Terre,8.5322391,38.6264712
Ethiopia,1150911907,Kobo,9.3764093,41.4744045
Ethiopia,1150912153,Degan,11.1484947,39.9021994
Ethiopia,1150912417,Ejaji,8.9978875,37.3282563
Ethiopia,1150913202,Kefole,7.0772986,38.7816755
Ethiopia,1150915176,Chifra,11.6033251,40.0162457
Ethiopia,1150916626,Ejersa,8.4801697,39.0622366
Ethiopia,1150917953,Fofa,7.850802,37.520086
Ethiopia,1150919267,ሳጉሬ / Sagure,7.751176,39.156385
Ethiopia,1150920739,Girawa,9.1379454,41.837227
Ethiopia,1150920983,Alem Teferi,8.9046936,35.2271871
Ethiopia,1150921721,T'Ora,7.859667,38.4230868
Ethiopia,1150921947,Mersa,11.6666735,39.6593276
Ethiopia,1150922827,Bambasi,9.7604225,34.7298772
Ethiopia,1150922975,Getema,8.9007854,36.4872911
Ethiopia,1150923080,Fital,9.6228666,38.6462926
Ethiopia,1150924327,በቆጂ / Bekoji,7.53333,39.25
Ethiopia,1150925357,Gelemso,8.812709,40.522048
Ethiopia,1150926035,Karamile,9.3742728,41.3698341
Ethiopia,1150927483,Busa,8.7765375,38.1461977
Ethiopia,1150928047,Itang,8.196875,34.267753
Ethiopia,1150928100,Tibe,9.0590475,37.1801737
Ethiopia,1150931642,Fatsi,14.40193,39.37811
Ethiopia,1150933626,Inticho,14.2779207,39.1506252
Ethiopia,1150933931,Aira,9.0997246,35.3985135
Ethiopia,1150934429,Gojo Town,9.2666357,38.0838058
Ethiopia,1150936367,Galladi,6.97556,46.41111
Ethiopia,1150936484,Gubba,11.2664729,35.2916214
Ethiopia,1150937410,ሰንዳፋ / Sendafa,9.155868,39.023811
Ethiopia,1150938451,Meti Chafi / Tilk u Meti,7.2340676,35.3153375
Ethiopia,1150938963,Bocco,9.1353597,42.078109
Ethiopia,1150940878,Kemse,10.7164422,39.8670264
Ethiopia,1150941652,Gore,8.1491926,35.5319005
Ethiopia,1150943402,ወለንኮሚ / Wolenkomi,9.0017063,38.246693
Ethiopia,1150944534,Yayu,8.341488,35.8122397
Ethiopia,1150945573,Shenen,8.7235441,37.4531774
Ethiopia,1150946097,Wegide,9.3838081,38.0363041
Ethiopia,1150949693,Ataye,10.3448956,39.9574609
Ethiopia,1150950242,Cha´cha´,9.5338219,39.4552366
Ethiopia,1150951295,Imi,6.457509,42.13912
Ethiopia,1150951352,CHANKA/ DALE SADI,8.860773,35.0730954
Ethiopia,1150951408,Enchini,8.8194912,37.6636042
Ethiopia,1150953098,Gasera,7.367751,40.198637
Ethiopia,1150953459,Alibo,9.8853403,37.0779765
Ethiopia,1150954014,Shano,9.33333,39.3
Ethiopia,1150955158,Adi Ramets',13.7519496,37.3201834
Ethiopia,1150955501,Salla Dingai,9.9548061,39.6310633
Ethiopia,1150956543,Bati,11.1916257,40.019752
Ethiopia,1150957542,Debark,13.1569503,37.8989366
Ethiopia,1150957673,Manasebo,10.6760452,35.6869396
Ethiopia,1150960079,Garasse,5.9191647,37.308489
Ethiopia,1150960225,Jeba,6.2526879,35.2242882
Ethiopia,1150960491,ጎሩ,8.4,37.86667
Ethiopia,1150961406,Derba,9.43333,38.65
Ethiopia,1150962209,Nifas Mewch'A,11.7386293,38.4727454
Ethiopia,1150967934,Shinile,9.68806,41.84472
Ethiopia,1150969689,Areka,7.0684,37.709973
Ethiopia,1150970652,Doba,9.2858722,41.0916996
Ethiopia,1150971905,Werder,6.974493,45.34315
Ethiopia,1150972481,Ghimbi,9.1721738,35.8380181
Ethiopia,1150976436,Derek' Amba,10.7,39.26667
Ethiopia,1150977986,Itiya,8.13333,39.23333
Ethiopia,1150978239,Kersa,9.455,41.86639
Ethiopia,1150978287,Bulala,7.9857142,39.5681191
Ethiopia,1150978885,Gida Ayana,9.8779077,36.6205474
Ethiopia,1150980719,Bako,9.1217306,37.065626
Ethiopia,1150981965,Ombole,8.36667,38.78333
Ethiopia,1150982067,Hidilola,3.7417867,38.5788132
Ethiopia,1150982161,Feres Bet,10.85,37.6
Ethiopia,1150982869,Ginir,7.1363189,40.7111566
Ethiopia,1151002480,Kachise,9.5996509,37.8461853
Ethiopia,1151003201,Robe,7.8655785,39.6298828
Ethiopia,1151003576,Shakiso,5.7746264,38.9028942
Ethiopia,1151004142,Kellafo,5.5934367,44.2044536
Ethiopia,1151004854,Ashenat,11.463171,38.9143151
Ethiopia,1151004987,Dufti,11.7404494,41.0831261
Ethiopia,1195526426,Chucko,6.5890634,38.3356537
Ethiopia,1228170241,Karat Konso,5.3398227,37.442368
Ethiopia,1234353232,Doyogena,7.3530559,37.7830839
Ethiopia,1234353244,Eso,6.3507475,37.5897923
Ethiopia,1234353459,Dorze,6.1948568,37.5743447
Ethiopia,1234353482,Serera,7.3074535,37.7895684
Ethiopia,1234353493,ቦረዳ / Boreda,6.4727579,37.6356481
Ethiopia,1234353601,Mare,7.4301319,37.8150524
Ethiopia,1234353714,ጨንቻ / Chencha,6.251095,37.572946
Ethiopia,1234353749,Hobicheba,7.2849723,37.7480263
Ethiopia,1234360535,ጨሌ / Chele,6.4323126,37.6163065
Ethiopia,1235451313,ሰመራ / Semera,11.7945048,41.0103478
Ethiopia,1235451315,ሎግያ,11.7230913,40.976098
Ethiopia,1235476468,Achamo,7.66556,38.0388828
Ethiopia,1235476475,Wuibareg,7.7390053,38.121928
Ethiopia,1235476477,Kela,8.2543114,38.4951243
Ethiopia,1235476478,Tiya,8.437331,38.609296
Ethiopia,1235476482,Lemen,8.6080498,38.6075026
Ethiopia,1235476483,Bui,8.3194261,38.5499025
Ethiopia,1235476484,Belessa,7.5887429,37.9199863
Ethiopia,1235476485,Gorabee,7.8468041,38.1859387
Ethiopia,1275584088,Debre Sina,9.8504801,39.7634761
Ethiopia,1275584129,Tarmaba,9.8487108,39.7329019
Ethiopia,1285634229,Gechi,8.3329655,36.418743
Ethiopia,1293233626,Weldiya,11.828852,39.596326
Ethiopia,1298133809,Gouder,8.9766902,37.765637
Ethiopia,1298133848,Tsege,9.1886713,36.5054509
Ethiopia,1298133861,Kiremu,9.959482,36.866774
Ethiopia,1298134081,Babich,8.9725621,37.5429942
Ethiopia,1298134139,Uke,9.3760849,36.5262005
Ethiopia,1323481237,Kuta Ber,11.2750846,39.5446322
Ethiopia,1365154916,Yebu,7.7846101,36.7265981
Ethiopia,1404223298,Yeed,4.538539,43.024681
Ethiopia,1415828839,Gerbo,8.4924981,38.1424005
Ethiopia,1415829273,Sumbo,8.5394191,38.2522763
Ethiopia,1415829395,Gorki,8.457415,38.0840686
Ethiopia,1415829606,Asigori,8.7896207,38.3311369
Ethiopia,1415829690,Tefki,8.8479134,38.4992999
Ethiopia,1445259708,Woncho,6.7557212,38.50786
Ethiopia,1445259753,Wabe,7.0139925,39.0225319
Ethiopia,1445259849,Edo,7.012102,39.0442199
Ethiopia,1445259862,Ashoka Velag,7.0257652,38.8964729
Ethiopia,1460494494,Maymekden,13.5821492,39.568287
Ethiopia,1549948797,Meki,8.151843,38.821087
Ethiopia,1562520590,በኬ,9.1618529,39.047506
Ethiopia,1576552003,Achuwa,7.6487581,36.0326232
Ethiopia,1576552008,Agaro,7.856633,36.589582
Ethiopia,1576552018,Angiyo Kolla,7.25,36.55
Ethiopia,1576552069,Bitahora,7.4018893,35.8916052
Ethiopia,1576552128,Daka,7.5935999,35.7609405
Ethiopia,1576552132,Del,7.8280947,35.8220579
Ethiopia,1576552137,Dimbra,7.295223,35.988388
Ethiopia,1576552138,Diri,7.3817067,36.287284
Ethiopia,1576552151,Shira,7.7446227,36.2500916
Ethiopia,1576552169,Gatira,8.0424398,36.3410514
Ethiopia,1576552175,Geche,7.5633002,35.4035924
Ethiopia,1576552184,Gembe,7.8355657,36.6701398
Ethiopia,1576552217,Gojeb,7.4121033,36.3728862
Ethiopia,1576552250,Kaka,7.288487,36.5750985
Ethiopia,1576552300,Leka,8.088274,35.6675266
Ethiopia,1576552319,Masha,7.747454,35.475953
Ethiopia,1576552446,Oda,7.0993417,36.518732
Ethiopia,1576555865,Gera,7.7791122,36.3386502
Ethiopia,1576555903,NA,7.8105174,36.6853479
Ethiopia,1576556041,Saja,7.5044675,36.070247
Ethiopia,1576556070,Ufa,7.407032,36.2304555
Ethiopia,1580682941,Koche,7.8964545,36.6595548
Ethiopia,1580685583,Sigmo,7.9105488,36.0974972
Ethiopia,1592291824,Addis Alem,9.046637,38.412391
Ethiopia,1637671318,Geshena,11.6882654,38.9240278
Ethiopia,1680860698,Raaso,6.546907,41.797026
Ethiopia,1680867519,Buundada,6.6157195,42.0225838
Ethiopia,1761239609,Melkadida Refugee Camp,4.5193683,41.7201069
Ethiopia,1762517045,Kobe Refugee Camp,4.4781414,41.7427568
Ethiopia,1762655073,Bokolmanyo Refugee Camp,4.5428188,41.5341166
Ethiopia,1771167684,Chagni,10.951812,36.512524
Ethiopia,1771167685,Debre Zeyit,10.5861493,35.7934337
Ethiopia,1771167686,Mambuk,11.3000115,36.2475652
Ethiopia,1780097466,Dandi Gudi,9.6787166,35.296575
Ethiopia,1780097498,Kiltu Kara,9.6891621,35.2611666
Ethiopia,1790907821,Almahal,11.5463288,35.1568263
Ethiopia,1795187965,Abadra,11.3229038,36.7828044
Ethiopia,1795187966,Jawi,11.5649859,36.4881908
Ethiopia,1795187967,Mindeera,11.2522864,36.377195
Ethiopia,1795187968,Pawi,11.3250129,36.4088012
Ethiopia,1795187969,Workmeda,11.3619905,36.6468809
Ethiopia,1900553723,Tiyo,7.6906214,39.247839
Ethiopia,1900758739,Gesuba,6.725177,37.5554384
Ethiopia,1902275798,Doni,8.5073429,39.5524522
Ethiopia,1907128677,Omonada,7.6338253,37.2515409
Ethiopia,1908173332,Sire,8.27641,39.4927371
Ethiopia,1908173413,Abba Jimma,8.3742184,39.9062039
Ethiopia,1908180027,Abomsa,8.4891492,39.834127
Ethiopia,1908365276,Kula,7.978316,39.688106
Ethiopia,1908365280,Deksis,8.0571885,39.5577291
Ethiopia,1908999467,Chole,8.2490388,39.8921496
Ethiopia,1910015963,Balchi,8.9178021,39.3736201
Ethiopia,1910016973,አረርቲ,8.9285282,39.4251614
Ethiopia,1910385700,Qoqa,8.4409805,39.0347416
Ethiopia,1911575490,Adulala,8.5343995,38.9058512
Ethiopia,1911581646,Sire Robe,8.47552,39.1598994
Ethiopia,1911660346,Hurta,8.1327304,39.4332257
Ethiopia,1911713870,Gado Dona,7.5288413,39.4737367
Ethiopia,1912655257,NA,9.5314744,41.4044995
Ethiopia,1913011143,Ticho,7.8077639,39.5166571
Ethiopia,1913811201,Shahura (Alefa),11.9341154,36.8725275
Ethiopia,1920760197,NA,5.4853114,37.8607733
Ethiopia,1920864375,Yabelo,4.892569,38.094989
Ethiopia,1923922218,Bordode,9.0131004,40.3890193
Ethiopia,1924029599,Wefe,8.6978317,40.3089242
Ethiopia,1924116563,Mechara,8.5997665,40.3244752
Ethiopia,1924229303,Komona,8.9506511,40.5558198
Ethiopia,1924229628,Wachu,8.8483961,40.6233578
Ethiopia,1953127867,Mechitu,7.437069,39.4779267
Ethiopia,1953310052,Robe Gerjeda,7.1904723,39.4301665
Ethiopia,1953349744,Washa,7.0351853,39.4731681
Ethiopia,1956795107,NA,7.979532,39.0597707
Ethiopia,1959385686,NA,7.1597431,39.5388928
Ethiopia,1959416933,NA,7.124932,39.4741246
Ethiopia,1962741608,Beke Kelate,9.6146614,37.9824212
Ethiopia,1963006587,Muger,9.4426595,38.3428661
Ethiopia,1963331026,Finicha'a,9.5675319,37.3613923
Ethiopia,1967093153,Tulu Wayo,9.6094379,36.937061
Ethiopia,1967244056,Gutin,9.5647499,36.6320021
Ethiopia,1967474310,Gelila,9.846067,36.477637
Ethiopia,1968071237,NA,9.8446132,36.3130139
Ethiopia,1969076352,Kelo,10.0995512,36.4650756
Ethiopia,1969077354,Hinde,9.973827,36.4524853
Ethiopia,1969393317,Ejere,9.9143014,38.5181407
Ethiopia,1969475626,Asassa,7.0993203,39.1953046
Ethiopia,1969928017,Kombolcha,9.5052256,37.4746871
Ethiopia,1969991353,Wayu,9.2305573,37.3608005
Ethiopia,1970635472,NA,9.2438218,37.2877349
Ethiopia,1970735674,Goben,9.172523,37.3088725
Ethiopia,1973115079,Chitu,8.607964,37.9237838
Ethiopia,1973115474,Ginido,8.5979971,37.7581314
Ethiopia,1973381634,Kebri Dehar,6.7389461,44.2804067
Ethiopia,1974437827,Seyo,8.7662858,37.2639452
Ethiopia,1975289485,NA,8.3084714,37.3642952
Ethiopia,1975362722,Sirambi,8.5362815,37.4292926
Ethiopia,1975362864,NA,8.4452476,37.4164537
Ethiopia,1976601512,Tarcha,7.1468491,37.1751295
Ethiopia,1976629627,Amaya,7.1052098,36.6748414
Ethiopia,1978285252,NA,9.1239225,37.6407464
Ethiopia,1978364413,NA,7.8513643,37.2368673
Ethiopia,1978571059,NA,7.9811856,36.9009964
Ethiopia,1981550710,Bilo,8.8978327,37.0001148
Ethiopia,1982034862,Bila,9.2892331,37.0258096
Ethiopia,1982036134,Shoboka,9.0932839,37.1233578
Ethiopia,1982036634,Hareto,9.3677359,37.1189992
Ethiopia,1982059145,Abora,9.9926435,37.0292926
Ethiopia,1988777914,NA,9.8031996,39.290274
Ethiopia,1989452650,NA,8.4737834,35.8195686
Ethiopia,1989559165,Limushay,7.9742516,36.690645
Ethiopia,2024619010,Esara (Balle),6.8944746,37.0159859
Ethiopia,2079101362,Feleke Selam,7.1185377,36.4692201
Ethiopia,2079124823,NA,8.590779,35.7343858
Ethiopia,2079942797,Mulo,9.2966193,38.5649505
Ethiopia,2079971909,Minare,9.6010771,38.2762807
Ethiopia,2079972110,NA,9.3793801,38.2110129
Ethiopia,2079972640,NA,9.5101491,38.1982982
Ethiopia,2080965977,ሰበታ / Sebeta,8.912246,38.624019
Ethiopia,2081056414,Banitu,8.6150963,38.3631854
Ethiopia,2082478994,Fiche Gelila,9.2395802,39.1936483
Ethiopia,2082499580,Fiche,9.771962,38.73886
Ethiopia,2082541807,Debre Tsige,9.6330585,38.8315611
Ethiopia,2084927706,NA,6.2504128,37.0178782
Ethiopia,2084973482,NA,6.2396205,37.1897477
Ethiopia,2085114571,NA,6.3291595,37.3058784
Ethiopia,2085133524,NA,6.0598479,37.175464
Ethiopia,2085628514,Gohatsion,10.0073183,38.2469375
Ethiopia,2095189294,NA,7.1269613,40.1631038
Ethiopia,2106294968,Sibo,8.2406402,35.2397543
Ethiopia,2119267858,NA,9.5048533,35.8621128
Ethiopia,2119283221,NA,9.8781744,36.091793
Ethiopia,2140613125,Koibi,5.7727226,36.7977432
Ethiopia,2148000745,Bokoksa,11.4409736,39.8793269
Ethiopia,2150450301,Burka,8.8193918,41.56828
Ethiopia,2151469245,Huse,8.6577798,41.8465354
Ethiopia,2151546248,Dawo,9.2928177,41.8771679
Ethiopia,2152888719,Gewane,10.159228,40.661596
Ethiopia,2154235638,Dedecha Bela,6.8966075,41.1264311
Ethiopia,2155911041,Shenen,8.733097,37.476164
Ethiopia,2155925475,Giundu,8.4220491,37.5212081
Ethiopia,2155970430,Balemi,9.1291271,37.5166131
Ethiopia,2167639984,Alem Ketema,10.0573531,38.987058
Ethiopia,2169095977,NA,7.1371328,37.5816209
Ethiopia,2178252705,NA,8.8485616,36.8277741
Ethiopia,2206470649,Degolo,10.42215,39.2538844
Ethiopia,2206470681,Hyke,11.3131688,39.676983
Ethiopia,2206470689,Mistima,11.3391572,39.7721089
Ethiopia,2282596817,Denboya,7.3455237,37.9513135
Ethiopia,2290441961,Gasachare,7.0123922,37.274054
Ethiopia,2290536421,Jaja,9.0813125,41.3652532
Ethiopia,2290614032,Hare Wacha,9.1777908,41.3390531
Ethiopia,2302376929,Bale,6.9177404,37.529996
Ethiopia,2304012568,NA,12.7442396,37.4144695
Ethiopia,2304012569,NA,13.351285,37.387513
Ethiopia,2304012570,NA,13.3843795,36.77345
Ethiopia,2304012571,NA,13.7914943,36.9269413
Ethiopia,2304012572,NA,13.9800376,36.8544705
Ethiopia,2304012573,NA,14.1128664,36.9473798
Ethiopia,2304012574,NA,14.2024117,36.7576796
Ethiopia,2304071874,NA,14.1658269,37.3084796
Ethiopia,2304137670,NA,13.7886057,37.6923978
Ethiopia,2304137677,NA,14.0702709,37.7621599
Ethiopia,2304137682,NA,14.1257608,37.8780936
Ethiopia,2304137686,NA,14.4143059,38.1863372
Ethiopia,2304491896,NA,14.3967973,37.7701345
Ethiopia,2304491897,NA,14.4560361,37.9826465
Ethiopia,2304491898,NA,14.5257818,37.9874825
Ethiopia,2304508896,NA,14.3139174,38.1722894
Ethiopia,2330208429,NA,14.0971236,39.2729437
Ethiopia,2330208431,NA,14.4911878,39.1729115
Ethiopia,2330972001,NA,7.456313,40.9804073
Ethiopia,2358274002,ቦሎ ሲላሴ,8.8780741,39.3953747
Ethiopia,2358274003,Dekebora,8.7158208,39.2051556
Ethiopia,2358274004,Edjere,8.7787789,39.2614837
Ethiopia,2358274006,Mintamir,9.1288161,39.5578688
Ethiopia,2358274008,ሶሎጊዮርጊስ,8.8419304,39.3702543
Ethiopia,2358274009,NA,9.3865833,39.3940543
Ethiopia,2455981589,Dendeba,10.7922039,39.0710599
Ethiopia,2455981590,Digo Tsion,10.8473963,37.7388526
Ethiopia,2455981593,Gundey,10.9263854,38.0882851
Ethiopia,2455981595,Melkane Selam,10.7477846,38.7552113
Ethiopia,2455981597,Mertule Mariam,10.8675924,38.2709408
Ethiopia,2457203501,NA,12.4296124,38.7192848
Ethiopia,2457203505,NA,12.4456158,38.8422471
Ethiopia,2457203508,NA,12.7788351,38.7967044
Ethiopia,2457203519,NA,12.4806,38.9217514
Ethiopia,2461402410,Karakore,10.422578,39.935187
Ethiopia,2519103798,Pujido,7.6470239,34.2572333
Ethiopia,2519103805,Shebel,8.4891255,34.5841097
Ethiopia,2616039123,Pagak,8.474665,34.0246349
Ethiopia,2670680384,NA,10.5035146,34.2974683
Ethiopia,2670705980,Tongo,9.3741778,34.4390283
Ethiopia,2723843915,Amedber,11.913465,37.8845726
Ethiopia,3142050035,NA,8.0954297,40.4814762
Ethiopia,3143546051,NA,7.9253698,41.1626928
Ethiopia,3144631593,NA,6.2186979,42.8273675
Ethiopia,3151971951,NA,9.968773,34.3683713
Ethiopia,3151972022,NA,9.9712348,34.3631946
Ethiopia,3167378208,Melka Soda,5.4894624,38.6127762
Ethiopia,3181570569,Wekepeche,8.012001,37.9763728
Ethiopia,3181570570,Maganasse,8.1311948,37.8666384
Ethiopia,3181570573,Zizencio,7.9582195,38.0373166
Ethiopia,3192091042,NA,5.3373477,41.8819944
